,City,Lat,Lng,Max Temp,Humidity,Cloudiness,Wind Speed,Country,Date
0,New Norfolk,-42.7826,147.0587,286.48,73,84,1.33,AU,1617138597
1,Ilulissat,69.2167,-51.1,275.15,64,75,7.72,GL,1617138598
2,Glossop,53.4432,-1.949,288.71,62,99,0.45,GB,1617138598
3,Butaritari,3.0707,172.7902,301.16,77,95,7.97,KI,1617138598
4,Norman Wells,65.282,-126.8329,263.15,79,90,2.06,CA,1617138599
5,Busselton,-33.65,115.3333,287.59,96,34,0.45,AU,1617138599
6,George Town,5.4112,100.3354,301.15,89,20,1.54,MY,1617138599
7,Filingué,14.3521,3.3168,301.54,12,16,4.24,NE,1617138600
8,Tabas,33.5959,56.9244,287.68,16,0,2.24,IR,1617138600
9,Ushuaia,-54.8,-68.3,282.15,61,20,11.83,AR,1617138600
10,Mataura,-46.1927,168.8643,286.48,98,96,0.45,NZ,1617138601
11,Sambava,-14.2667,50.1667,299.27,82,100,1.12,MG,1617138601
12,Tasiilaq,65.6145,-37.6368,270.15,68,90,2.06,GL,1617138601
13,Albany,42.6001,-73.9662,290.37,25,24,3.13,US,1617138421
14,Atuona,-9.8,-139.0333,300.04,77,93,8.2,PF,1617138602
15,Natalicio Talavera,-25.6333,-56.3,297.02,55,0,2.42,PY,1617138602
16,Aberdeen,57.1437,-2.0981,285.93,76,100,1.54,GB,1617138542
17,Hilo,19.7297,-155.09,298.15,65,90,3.6,US,1617138601
18,Alyangula,-13.8483,136.4192,300.54,71,74,4.68,AU,1617138603
19,Panabá,21.2833,-88.2667,309.02,26,18,4.74,MX,1617138603
20,Pidhaytsi,49.2685,25.1334,279.69,88,100,1.69,UA,1617138603
21,Kapaa,22.0752,-159.319,299.15,73,40,6.69,US,1617138604
22,Naze,28.3667,129.4833,291.69,88,99,3.32,JP,1617138604
23,Vaini,-21.2,-175.2,302.15,79,40,4.12,TO,1617138605
24,Bredasdorp,-34.5322,20.0403,288.15,88,0,3.09,ZA,1617138605
25,Palmer,42.1584,-72.3287,288.15,26,20,6.69,US,1617138558
26,Saint George,37.1041,-113.5841,289.82,11,1,1.54,US,1617138605
27,Hasaki,35.7333,140.8333,288.15,72,75,5.14,JP,1617138606
28,Cabo San Lucas,22.8909,-109.9124,302.15,21,1,5.14,MX,1617138602
29,Faanui,-16.4833,-151.75,300.42,73,24,1.37,PF,1617138606
30,Puerto Ayacucho,5.6639,-67.6236,302.69,65,98,2.12,VE,1617138606
31,Torbay,47.6666,-52.7314,272.59,55,75,10.29,CA,1617138607
32,Souillac,-20.5167,57.5167,296.15,94,40,4.12,MU,1617138607
33,Jamestown,42.097,-79.2353,292.15,24,1,9.77,US,1617138607
34,Caruray,10.3094,119.0128,298.15,88,40,2.06,PH,1617138608
35,Mar del Plata,-38.0023,-57.5575,291.15,72,20,3.09,AR,1617138472
36,Punta Arenas,-53.15,-70.9167,285.15,50,0,7.72,CL,1617138595
37,Atar,20.5169,-13.0499,302.56,16,16,1.96,MR,1617138608
38,Mokhsogollokh,61.4681,128.9203,251.4,99,89,1.04,RU,1617138609
39,Barrow,71.2906,-156.7887,252.15,65,1,12.86,US,1617138609
40,Amapá,1.0,-52.0,297.44,96,52,2.01,BR,1617138609
41,Bluff,-46.6,168.3333,286.48,98,36,0.45,NZ,1617138610
42,Cape Town,-33.9258,18.4232,290.93,88,0,3.09,ZA,1617138369
43,Longyearbyen,78.2186,15.6401,270.15,74,75,3.6,SJ,1617138610
44,Gamba,-2.65,10.0,298.95,86,100,2.29,GA,1617138611
45,Churapcha,62.0025,132.4325,251.89,100,100,1.91,RU,1617138611
46,Saint-Augustin,51.226,-58.6502,268.42,73,59,4.12,CA,1617138611
47,Tilichiki,60.4667,166.1,261.55,93,100,4.22,RU,1617138612
48,Avarua,-21.2078,-159.775,300.15,83,40,4.63,CK,1617138567
49,Puerto Ayora,-0.7393,-90.3518,301.15,74,20,2.06,EC,1617138612
50,Port Alfred,-33.5906,26.891,292.39,87,22,8.42,ZA,1617138613
51,Paredon,16.0333,-93.8667,305.49,45,2,4.78,MX,1617138613
52,São João da Barra,-21.6403,-41.0511,300.15,78,40,4.12,BR,1617138613
53,Hobart,-42.8794,147.3294,286.48,82,75,3.6,AU,1617138613
54,Anadyr,64.75,177.4833,254.15,71,0,1.0,RU,1617138614
55,Chardara,41.2547,67.9692,281.98,56,6,3.52,KZ,1617138614
56,Raychikhinsk,49.7838,129.4121,272.48,83,85,3.34,RU,1617138614
57,Mulegé,26.8833,-111.9833,301.51,25,0,2.97,MX,1617138615
58,Keti Bandar,24.1447,67.4497,299.54,71,6,6.03,PK,1617138615
59,Constitución,-35.3333,-72.4167,289.96,74,7,3.62,CL,1617138615
60,Dikson,73.5069,80.5464,240.28,96,6,2.13,RU,1617138616
61,Kamenka,51.3223,42.7678,272.04,94,11,2.75,RU,1617138616
62,Fort Nelson,58.8053,-122.7002,270.15,63,75,2.06,CA,1617138592
63,Talen,23.5667,76.7167,299.38,23,0,3.58,IN,1617138617
64,Yueyang,29.3333,113.0919,289.5,97,100,1.4,CN,1617138617
65,Yellowknife,62.456,-114.3525,261.48,60,75,7.2,CA,1617138617
66,Muros,42.7762,-9.0603,289.26,80,82,4.07,ES,1617138618
67,Almuñécar,36.7339,-3.6907,291.48,71,0,2.24,ES,1617138618
68,Olafsvik,64.8945,-23.7142,276.43,66,19,5.01,IS,1617138618
69,Saint-Philippe,-21.3585,55.7679,299.15,73,0,2.06,RE,1617138603
70,Balaka,-14.9793,34.9558,291.42,90,20,1.7,MW,1617138619
71,Buraidah,26.326,43.975,296.15,27,0,6.17,SA,1617138619
72,Richards Bay,-28.783,32.0377,293.63,80,2,5.17,ZA,1617138620
73,Mersing,2.4312,103.8405,297.15,100,100,5.14,MY,1617138382
74,Bridlington,54.0831,-0.1919,288.15,66,87,0.51,GB,1617138620
75,Bengkulu,-3.8004,102.2655,296.67,89,100,1.92,ID,1617138620
76,Tiksi,71.6872,128.8694,253.13,99,100,2.97,RU,1617138621
77,Ancud,-41.8697,-73.8203,293.15,68,75,5.14,CL,1617138621
78,Sakakah,29.9697,40.2064,293.15,15,62,5.14,SA,1617138621
79,Bathsheba,13.2167,-59.5167,300.15,57,20,10.29,BB,1617138622
80,Chokurdakh,70.6333,147.9167,247.04,100,85,0.83,RU,1617138622
81,Glenwood Springs,39.5505,-107.3248,280.15,38,48,5.14,US,1617138565
82,Auki,-8.7676,160.7034,300.42,78,63,1.65,SB,1617138622
83,Booué,-0.0921,11.9385,296.22,96,97,0.2,GA,1617138623
84,Seoul,37.5683,126.9778,278.15,87,0,1.03,KR,1617138133
85,Dakoro,14.5106,6.765,297.63,9,7,4.93,NE,1617138623
86,Te Anau,-45.4167,167.7167,285.76,91,35,0.69,NZ,1617138624
87,Chui,-33.6971,-53.4616,292.72,62,66,4.69,UY,1617138624
88,Kavieng,-2.5744,150.7967,300.65,76,99,1.1,PG,1617138624
89,Rikitea,-23.1203,-134.9692,299.05,69,8,6.53,PF,1617138380
90,Punta Alta,-38.8759,-62.0736,295.32,49,0,6.62,AR,1617138510
91,Qasigiannguit,68.8193,-51.1922,275.15,64,75,7.72,GL,1617138625
92,Bull Savanna,17.8868,-77.5902,300.8,59,3,9.77,JM,1617138625
93,Dingle,10.9995,122.6711,297.77,90,100,2.67,PH,1617138625
94,Port-Gentil,-0.7193,8.7815,299.15,94,90,5.14,GA,1617138626
95,Qaanaaq,77.484,-69.3632,254.67,72,100,2.59,GL,1617138626
96,Promyshlennaya,54.9159,85.6385,267.15,79,40,7.0,RU,1617138626
97,Mahébourg,-20.4081,57.7,296.15,94,40,4.12,MU,1617138627
98,Kansanshi,-12.0951,26.4273,288.62,98,89,2.08,ZM,1617138627
99,Neuquén,-38.9516,-68.0591,303.15,26,0,3.09,AR,1617138628
100,Port Elizabeth,-33.918,25.5701,289.15,94,40,6.17,ZA,1617138628
101,North Bay,46.3168,-79.4663,288.15,41,75,8.27,CA,1617138336
102,Nome,64.5011,-165.4064,264.15,79,90,2.57,US,1617138628
103,Kovdor,67.5662,30.4758,271.57,95,100,5.41,RU,1617138629
104,Vestmanna,62.1564,-7.1664,275.15,75,75,5.14,FO,1617138629
105,Nanortalik,60.1432,-45.2371,275.26,97,100,9.79,GL,1617138629
106,Anchorage,61.2181,-149.9003,277.15,48,1,4.12,US,1617138418
107,Verkhnyaya Inta,65.9811,60.3094,270.3,83,100,4.51,RU,1617138630
108,Vila Velha,-20.3297,-40.2925,302.59,78,0,6.17,BR,1617138630
109,Korla,41.7597,86.1469,277.52,79,100,4.67,CN,1617138630
110,Saldanha,-33.0117,17.9442,290.15,82,4,1.54,ZA,1617138631
111,Bonavista,48.6499,-53.1147,272.59,50,99,5.14,CA,1617138631
112,Ternate,0.8,127.4,299.96,83,100,3.84,ID,1617138631
113,Carnarvon,-24.8667,113.6333,299.15,73,26,6.69,AU,1617138628
114,Bambous Virieux,-20.3428,57.7575,298.71,94,40,2.06,MU,1617138632
115,Vardø,70.3705,31.1107,274.15,93,75,10.29,NO,1617138632
116,Saint Anthony,45.0205,-93.218,277.59,35,75,8.75,US,1617138632
117,Ust'-Kan,50.9276,84.761,262.48,92,100,1.02,RU,1617138633
118,Turukhansk,65.8167,87.9833,241.58,99,95,1.03,RU,1617138633
119,Andenes,69.3143,16.1194,277.15,87,69,8.23,NO,1617138633
120,Fujin,47.26,132.0322,273.92,82,11,3.0,CN,1617138634
121,Hithadhoo,-0.6,73.0833,301.71,75,76,8.07,MV,1617138634
122,College,64.8569,-147.8028,275.15,55,75,1.54,US,1617138634
123,Saint Paul Harbor,57.79,-152.4072,279.15,65,75,4.63,US,1617138511
124,Port Pirie,-33.1833,138.0167,285.15,94,6,2.06,AU,1617138635
125,Thompson,55.7435,-97.8558,260.15,43,75,7.2,CA,1617138609
126,Khatanga,71.9667,102.5,236.65,99,63,3.34,RU,1617138629
127,Kapit,2.0167,112.9333,295.76,99,100,0.26,MY,1617138636
128,Fayaoué,-20.65,166.5333,299.69,72,98,9.56,NC,1617138636
129,Pisco,-13.7,-76.2167,296.15,64,20,9.26,PE,1617138636
130,Davila,18.4726,120.5763,295.15,94,40,5.9,PH,1617138637
131,Humboldt,40.6665,-123.9178,290.37,58,1,5.66,US,1617138637
132,Taft,31.7471,54.2088,287.15,17,0,2.06,IR,1617138637
133,Saskylakh,71.9167,114.0833,238.94,100,100,2.94,RU,1617138638
134,Majene,-3.5403,118.9707,298.99,81,99,1.81,ID,1617138638
135,Wanning,18.8003,110.3967,296.45,94,15,4.88,CN,1617138638
136,Hermanus,-34.4187,19.2345,287.04,91,4,3.05,ZA,1617138603
137,Ribeira Grande,38.5167,-28.7,288.15,82,75,2.57,PT,1617138639
138,Kawalu,-7.3817,108.2082,295.94,95,100,0.43,ID,1617138639
139,Tuktoyaktuk,69.4541,-133.0374,248.15,77,20,8.75,CA,1617138639
140,Luwuk,-0.9516,122.7875,298.52,83,97,1.53,ID,1617138640
141,Manali,13.1667,80.2667,300.15,89,20,2.57,IN,1617138640
142,Khāsh,28.2211,61.2158,285.11,23,0,2.57,IR,1617138640
143,Zhigansk,66.7697,123.3711,265.89,93,100,6.26,RU,1617138641
144,Aguié,13.506,7.7786,297.38,10,4,4.49,NE,1617138641
145,Oak Ridge,36.0104,-84.2696,297.59,33,1,3.6,US,1617138642
146,East London,-33.0153,27.9116,294.62,81,6,3.21,ZA,1617138582
147,Port Blair,11.6667,92.75,299.61,79,86,0.93,IN,1617138642
148,Akdepe,42.0551,59.3788,280.15,61,0,3.09,TM,1617138643
149,Rossosh',51.1209,38.5116,273.92,73,24,2.8,RU,1617138643
150,Alpena,45.0617,-83.4327,293.15,32,90,8.23,US,1617138643
151,Slave Lake,55.2834,-114.769,269.15,58,1,3.09,CA,1617138644
152,Lodwar,3.1191,35.5973,303.39,40,76,2.35,KE,1617138644
153,Encheng,22.1839,112.3026,296.57,96,66,1.92,CN,1617138644
154,Nuoro,40.3211,9.3297,286.15,76,0,1.03,IT,1617138645
155,Provideniya,64.3833,-173.3,261.15,67,0,6.0,RU,1617138645
156,Springbok,-29.6643,17.8865,289.37,55,0,1.79,ZA,1617138645
157,Kahului,20.8947,-156.47,301.15,57,40,8.23,US,1617138646
158,Port Hardy,50.6996,-127.4199,283.15,71,75,5.14,CA,1617138646
159,Arraial do Cabo,-22.9661,-42.0278,300.15,94,75,6.17,BR,1617138646
160,Pontianak,-0.0333,109.3333,297.15,100,90,1.54,ID,1617138647
161,São Filipe,14.8961,-24.4956,294.57,75,4,2.96,CV,1617138647
162,Deputatsky,69.3,139.9,248.67,97,81,1.27,RU,1617138647
163,Goundam,16.4145,-3.6708,300.66,9,18,3.39,ML,1617138648
164,Luganville,-15.5333,167.1667,300.53,83,51,3.19,VU,1617138648
165,Yelahanka,13.1075,77.6003,299.15,41,20,2.57,IN,1617138648
166,Fonte Boa,-2.4959,-66.2662,296.05,99,100,1.18,BR,1617138649
167,Burgeo,47.6167,-57.6152,269.04,70,50,9.67,CA,1617138649
168,Nouadhibou,20.931,-17.0347,291.15,88,0,4.63,MR,1617138649
169,Chapada dos Guimarães,-15.4606,-55.7497,305.15,51,0,4.12,BR,1617138650
170,Dunedin,-45.8742,170.5036,287.04,82,80,3.58,NZ,1617138404
171,Huarmey,-10.0681,-78.1522,296.81,75,62,4.91,PE,1617138650
172,Berezovyy,51.6667,135.7,269.57,97,100,0.75,RU,1617138650
173,Magway,20.15,94.9167,298.23,54,6,2.29,MM,1617138651
174,Lebu,-37.6167,-73.65,288.91,82,15,4.88,CL,1617138610
175,Solnechnyy,50.7214,136.6319,269.07,91,100,1.58,RU,1617138651
176,Takoradze,4.8845,-1.7554,300.06,85,95,2.82,GH,1617138434
177,Zhangaözen,43.3,52.8,278.55,55,5,4.88,KZ,1617138652
178,Novikovo,51.1537,37.8879,273.79,73,24,2.36,RU,1617138652
179,Tual,-5.6667,132.75,301.79,72,100,3.62,ID,1617138653
180,Netivot,31.4222,34.5886,287.04,100,2,2.07,IL,1617138653
181,Lavrentiya,65.5833,-171.0,257.98,73,100,2.93,RU,1617138653
182,Macará,-4.3833,-79.95,301.7,65,59,1.08,EC,1617138654
183,Adamovka,51.5223,59.9396,255.32,100,99,1.68,RU,1617138654
184,Eureka,40.8021,-124.1637,291.48,58,0,4.02,US,1617138609
185,Kyshtovka,56.555,76.6271,265.2,95,100,4.03,RU,1617138654
186,Tessalit,20.1986,1.0114,298.37,5,19,5.03,ML,1617138642
187,Hildesheim,52.1508,9.9511,284.82,58,75,1.28,DE,1617138655
188,Lorengau,-2.0226,147.2712,300.87,73,100,2.6,PG,1617138655
189,Baruun-Urt,46.6806,113.2792,269.82,84,4,0.39,MN,1617138656
190,Shar,49.5886,81.0453,270.45,84,100,1.33,KZ,1617138656
191,Pemberton,50.3164,-122.8027,279.15,45,20,1.54,CA,1617138657
192,Manokwari,-0.8667,134.0833,298.67,79,100,1.44,ID,1617138657
193,Nchelenge,-9.3451,28.734,293.45,87,70,1.31,ZM,1617138657
194,Linhai,28.85,121.1167,289.82,93,100,1.48,CN,1617138658
195,Upernavik,72.7868,-56.1549,266.56,71,100,3.32,GL,1617138658
196,Atasū,48.6814,71.6433,262.1,96,99,2.74,KZ,1617138658
197,Veinticinco de Mayo,-35.4323,-60.1727,292.96,62,0,2.89,AR,1617138658
198,Laksar,29.7667,78.05,295.07,19,0,2.67,IN,1617138659
199,Stara Zagora,42.4328,25.6419,279.15,87,40,3.09,BG,1617138659
200,Taber,49.8167,-112.1518,276.15,30,51,6.17,CA,1617138659
201,Kailua,21.4022,-157.7394,301.15,65,90,4.12,US,1617138660
202,Hualmay,-11.0964,-77.6139,296.1,75,91,4.46,PE,1617138660
203,Russell,32.3502,-85.1999,298.15,61,75,3.09,US,1617138661
204,Simao,22.7886,100.9748,288.3,41,3,0.63,CN,1617138661
205,Fairbanks,64.8378,-147.7164,275.15,64,75,1.58,US,1617138603
206,Sungai Raya,0.7,108.9,298.03,92,96,1.23,ID,1617138661
207,Yulara,-25.2406,130.9889,289.15,48,0,2.06,AU,1617138662
208,Methóni,36.8197,21.7049,285.37,76,38,2.06,GR,1617138662
209,Nigrán,42.1415,-8.8066,291.15,68,0,1.54,ES,1617138662
210,Aklavik,68.2191,-135.0107,255.15,71,75,3.09,CA,1617138663
211,Tura,25.5198,90.2201,293.74,91,24,2.89,IN,1617138663
212,Kudat,6.8837,116.8477,299.15,94,40,2.06,MY,1617138663
213,Raja,8.4596,25.678,299.78,19,100,2.23,SS,1617138664
214,Kloulklubed,7.0419,134.2556,298.15,88,75,2.06,PW,1617138664
215,Ponta do Sol,32.6667,-17.1,288.71,74,19,1.34,PT,1617138664
216,Atbasar,51.8,68.3333,254.61,100,96,1.48,KZ,1617138665
217,Nuuk,64.1835,-51.7216,276.15,87,75,15.95,GL,1617138665
218,Mae Hong Son,19.3003,97.9685,294.12,63,8,0.49,TH,1617138665
219,Quryq,43.2,51.65,280.78,62,1,4.65,KZ,1617138666
220,Touros,-5.1989,-35.4608,300.15,78,20,3.09,BR,1617138666
221,Mareeba,-17.0,145.4333,299.15,69,75,6.69,AU,1617138666
222,Gunjur,13.2019,-16.7339,293.15,83,0,4.63,GM,1617138667
223,Puerto del Rosario,28.5004,-13.8627,292.15,72,20,1.54,ES,1617138667
224,Shelby,35.2001,-89.8668,289.82,94,90,3.09,US,1617138667
225,Isangel,-19.55,169.2667,300.38,80,93,4.26,VU,1617138668
226,Oodweyne,9.4092,45.064,297.35,30,75,2.13,SO,1617138634
227,Yerbogachën,61.2767,108.0108,262.7,94,100,3.36,RU,1617138668
228,Henties Bay,-22.116,14.2845,289.82,91,7,0.89,NA,1617138668
229,Labuhan,-6.8844,112.2051,298.7,83,100,2.63,ID,1617138669
230,La Argentina,2.1961,-75.98,294.76,66,99,1.5,CO,1617138669
231,Severo-Kuril'sk,50.6789,156.125,275.31,93,82,2.41,RU,1617138670
232,Meulaboh,4.1363,96.1285,297.18,88,100,2.37,ID,1617138670
233,Khomeyn,33.6423,50.0789,283.32,27,8,1.27,IR,1617138434
234,Padang,-0.9492,100.3543,297.63,88,98,2.11,ID,1617138670
235,Sri Aman,1.2376,111.4621,297.15,100,100,0.51,MY,1617138671
236,Luau,-10.7073,22.2247,291.04,98,100,1.08,AO,1617138671
237,Fortuna,40.5982,-124.1573,289.82,58,1,5.66,US,1617138671
238,Pevek,69.7008,170.3133,247.61,99,95,3.56,RU,1617138672
239,San Patricio,28.017,-97.5169,304.15,55,40,8.75,US,1617138672
240,Puerto Lumbreras,37.5633,-1.8097,286.48,73,30,4.01,ES,1617138438
241,Araouane,18.9048,-3.5265,300.55,7,36,3.74,ML,1617138672
242,Biloela,-24.4167,150.5,291.71,81,0,5.19,AU,1617138673
243,Pangody,65.85,74.4859,239.65,100,45,2.05,RU,1617138673
244,Trairi,-3.2778,-39.2689,298.84,81,77,2.76,BR,1617138674
245,Marquette,46.5333,-87.6335,283.15,23,1,6.69,US,1617138476
246,Grand Gaube,-20.0064,57.6608,298.71,74,98,1.34,MU,1617138674
247,Lata,40.1629,-8.3327,293.15,45,20,1.54,PT,1617138674
248,Teknāf,20.8624,92.3058,298.31,90,28,5.75,BD,1617138675
249,Hokitika,-42.7167,170.9667,289.47,79,75,1.67,NZ,1617138675
250,Cervo,43.6702,-7.4101,288.71,73,100,1.36,ES,1617138675
251,Nador,35.174,-2.9287,290.15,82,90,2.57,MA,1617138676
252,Doha,25.2867,51.5333,296.15,43,0,3.09,QA,1617138676
253,Castro,-24.7911,-50.0119,289.99,96,93,1.61,BR,1617138605
254,Ahipara,-35.1667,173.1667,292.47,86,26,3.38,NZ,1617138677
255,Gazojak,41.1875,61.4036,283.18,49,67,3.52,TM,1617138677
256,São Sebastião,-23.76,-45.4097,297.6,88,60,1.15,BR,1617138677
257,Mayumba,-3.432,10.6554,298.85,87,100,2.54,GA,1617138678
258,Quelimane,-17.8786,36.8883,295.93,100,75,2.63,MZ,1617138678
259,Yalta,44.5,34.1667,277.04,65,47,3.38,UA,1617138678
260,Mandera,3.9366,41.867,305.25,28,28,2.21,KE,1617138679
261,Capim Grosso,-11.3811,-40.0128,300.76,44,54,3.04,BR,1617138679
262,Adrar,20.5022,-10.0711,302.25,8,15,3.89,MR,1617138679
263,Bethel,41.3712,-73.414,287.59,41,7,0.45,US,1617138680
264,Lumeje,-11.55,20.7833,291.33,98,100,1.99,AO,1617138680
265,Kambove,-10.8764,26.5969,288.2,98,35,1.72,CD,1617138680
266,Kudahuvadhoo,2.6708,72.8944,301.56,76,100,7.94,MV,1617138680
267,Poum,-20.2333,164.0167,299.05,74,93,6.06,NC,1617138681
268,Salinópolis,-0.6136,-47.3561,298.94,88,100,4.08,BR,1617138681
269,Marsabit,2.3284,37.9899,297.16,43,63,4.26,KE,1617138681
270,Tuatapere,-46.1333,167.6833,286.48,98,66,0.45,NZ,1617138682
271,Manakara,-22.1333,48.0167,295.6,87,66,2.26,MG,1617138682
272,Nelson Bay,-32.7167,152.15,289.26,100,75,3.09,AU,1617138682
273,Dongsheng,39.8161,109.9776,281.39,30,100,8.41,CN,1617138683
274,Bima,-8.4667,118.7167,297.1,93,92,1.72,ID,1617138683
275,Faya,18.3851,42.4509,292.15,42,0,4.63,SA,1617138683
276,Mossamedes,-15.1961,12.1522,296.85,85,100,3.05,AO,1617138684
277,Maniitsoq,65.4167,-52.9,273.53,97,100,18.38,GL,1617138601
278,Canto do Buriti,-8.11,-42.9444,300.61,65,67,1.22,BR,1617138684
279,Ucluelet,48.9329,-125.5528,282.59,71,40,4.63,CA,1617138486
280,Esil,51.9556,66.4042,258.16,99,85,2.1,KZ,1617138685
281,Laas,46.6166,10.7002,286.48,61,0,2.06,IT,1617138685
282,Surab,28.4914,66.2585,284.56,16,0,5.1,PK,1617138685
283,Żurrieq,35.8311,14.4742,287.59,67,0,0.51,MT,1617138685
284,Novaya Bryan’,51.7159,108.2691,276.15,65,75,4.0,RU,1617138686
285,Teahupoo,-17.8333,-149.2667,304.15,62,20,4.12,PF,1617138686
286,Prince Rupert,54.3161,-130.3201,278.15,93,90,3.09,CA,1617138686
287,Yar-Sale,66.8333,70.8333,250.09,89,100,4.51,RU,1617138687
288,Banbury,52.0602,-1.3403,284.26,70,8,2.66,GB,1617138687
289,Okhotsk,59.3833,143.3,266.31,79,99,4.68,RU,1617138687
290,Esperance,-33.8667,121.9,290.15,94,4,3.6,AU,1617138688
291,Krasnosel'kup,65.7,82.4667,243.17,97,7,4.16,RU,1617138688
292,Zabid,14.1951,43.3152,301.24,51,3,0.49,YE,1617138688
293,Kimbe,-5.5502,150.1429,297.96,89,100,1.25,PG,1617138688
294,Abu Samrah,35.3029,37.1841,286.77,43,78,5.21,SY,1617138689
295,Hong Kong,22.2855,114.1577,298.71,85,16,0.45,HK,1617138080
296,Katsuura,35.1333,140.3,288.71,84,59,5.83,JP,1617138689
297,Raudeberg,61.9875,5.1352,277.04,94,100,6.07,NO,1617138690
298,Banda Aceh,5.5577,95.3222,299.21,78,99,6.11,ID,1617138690
299,Hamilton,39.1834,-84.5333,297.15,28,1,8.75,US,1617138568
300,Juba,4.8517,31.5825,299.49,60,82,3.84,SS,1617138690
301,Kaa-Khem,51.6833,94.7333,261.75,82,5,1.95,RU,1617138691
302,Kamaishi,39.2667,141.8833,282.12,90,99,2.59,JP,1617138691
303,Evensk,61.95,159.2333,265.08,62,100,5.88,RU,1617138691
304,Valparaíso,-33.0393,-71.6273,289.15,72,20,2.57,CL,1617138692
305,Liku,-0.7275,119.8922,297.04,91,75,0.84,ID,1617138692
306,Premià de Mar,41.4921,2.3652,286.48,79,2,0.45,ES,1617138693
307,Kiama,-34.6833,150.8667,288.15,87,32,0.89,AU,1617138569
308,Belyy Yar,53.6039,91.3903,269.15,80,0,2.0,RU,1617138693
309,Lake Shasta,40.6804,-122.3708,294.15,14,1,6.69,US,1617138693
310,Nishihara,26.1842,127.7558,295.15,94,75,1.54,JP,1617138694
311,Oranjemund,-28.55,16.4333,289.36,90,0,2.53,NA,1617138694
312,Aginskoye,51.1,114.53,273.13,76,11,1.79,RU,1617138694
313,Derzhavīnsk,51.1,66.3167,262.54,97,87,3.27,KZ,1617138695
314,Turan,16.0678,108.2208,299.15,89,20,2.06,VN,1617138695
315,Hammerfest,70.6634,23.6821,275.15,87,75,3.09,NO,1617138695
316,Baringo,0.4667,35.9667,298.25,50,56,0.75,KE,1617138696
317,Hofn,64.2539,-15.2082,274.64,56,0,3.19,IS,1617138696
318,Pleasanton,37.6624,-121.8747,297.04,13,1,7.2,US,1617138430
319,Casas Grandes,30.3667,-107.95,299.82,4,1,8.49,MX,1617138697
320,Novo Aripuanã,-5.1206,-60.3797,300.89,87,49,0.57,BR,1617138697
321,The Valley,18.217,-63.0578,300.15,74,40,8.23,AI,1617138635
322,Caxito,-8.5785,13.6643,300.15,78,20,3.6,AO,1617138697
323,Camopi,3.1655,-52.3158,297.45,94,86,2.01,GF,1617138698
324,Gushikawa,26.3544,127.8686,294.15,94,1,1.54,JP,1617138698
325,Inuvik,68.3499,-133.7218,255.15,65,100,4.12,CA,1617138698
326,Bermeo,43.4209,-2.7215,294.15,37,20,3.09,ES,1617138699
327,Kaitangata,-46.2817,169.8464,286.09,95,96,1.52,NZ,1617138699
328,Mumford,5.2618,-0.759,300.04,86,77,4.13,GH,1617138699
329,Bonnyville,54.2668,-110.735,266.15,49,1,4.12,CA,1617138700
330,Am Timan,11.0297,20.2827,302.07,12,0,3.08,TD,1617138700
331,Mount Isa,-20.7333,139.5,295.15,35,0,4.63,AU,1617138626
332,Freire,-38.95,-72.6333,292.15,68,90,2.06,CL,1617138701
333,Vallenar,-28.5708,-70.7581,299.34,31,1,3.32,CL,1617138701
334,Innisfail,-17.5333,146.0333,296.34,87,100,4.53,AU,1617138701
335,Heilbron,-27.2812,27.9709,288.85,45,1,2.53,ZA,1617138702
336,Moranbah,-22.0016,148.0466,292.54,78,0,6.92,AU,1617138702
337,Vila Franca do Campo,37.7167,-25.4333,288.15,88,20,3.6,PT,1617138645
338,La Ronge,55.1001,-105.2842,264.15,48,91,2.57,CA,1617138702
339,Kayerkan,69.3497,87.7602,240.44,98,73,1.86,RU,1617138703
340,Gijang,35.2442,129.2139,282.15,71,0,3.6,KR,1617138703
341,Ust-Kuyga,70.0167,135.6,249.76,100,100,0.54,RU,1617138704
342,Lagos,6.5833,3.75,303.15,74,20,4.12,NG,1617138628
343,Xuzhou,34.1805,117.1571,283.96,50,100,5.44,CN,1617138704
344,Bethalto,38.9092,-90.0407,293.15,59,90,3.09,US,1617138704
345,Ust-Tsilma,65.441,52.1498,274.18,97,100,3.85,RU,1617138676
346,Iqaluit,63.7506,-68.5145,253.15,65,20,9.26,CA,1617138705
347,Poli,-3.3333,36.8,294.15,100,40,2.57,TZ,1617138705
348,Cherskiy,68.75,161.3,252.03,97,41,1.46,RU,1617138633
349,Pangnirtung,66.1451,-65.7125,255.15,78,75,9.26,CA,1617138706
350,Bhor,18.1667,73.85,296.43,23,9,2.21,IN,1617138706
351,Gorontalo,0.5412,123.0595,297.1,95,58,1.73,ID,1617138706
352,Leningradskiy,69.3833,178.4167,253.32,88,99,4.3,RU,1617138707
353,Gvarv,59.3875,9.1737,282.04,80,100,0.45,NO,1617138707
354,Christchurch,-43.5333,172.6333,288.15,94,90,0.51,NZ,1617138649
355,Lüderitz,-26.6481,15.1594,290.78,80,0,4.78,NA,1617138708
356,Airai,-8.9266,125.4092,288.48,98,100,1.0,TL,1617138708
357,Gizo Government Station,-8.103,156.8419,301.51,75,34,2.9,SB,1617138683
358,Coyhaique,-45.5752,-72.0662,295.15,53,20,1.54,CL,1617138708
359,Rawson,-43.3002,-65.1023,298.87,27,98,10.28,AR,1617138505
360,Vila,42.0304,-8.1588,291.15,68,0,1.54,PT,1617138709
361,Tela,15.7833,-87.45,303.15,79,40,3.09,HN,1617138709
362,Lahaina,20.8783,-156.6825,301.15,54,20,7.72,US,1617138645
363,Cidreira,-30.1811,-50.2056,294.21,75,25,5.98,BR,1617138622
364,Denizli Province,37.8402,29.0698,275.15,93,75,5.66,TR,1617138572
365,Chhatarpur,24.9,79.6,299.35,6,5,4.1,IN,1617138710
366,Sumbe,-11.2061,13.8437,298.97,77,37,0.83,AO,1617138710
367,Pālanpur,24.1667,72.4333,298.07,53,0,2.07,IN,1617138710
368,Tautira,-17.7333,-149.15,304.15,62,20,4.12,PF,1617138711
369,Egvekinot,66.3167,-179.1667,254.25,87,76,0.07,RU,1617138711
370,Cornwall,45.0181,-74.7281,293.15,22,1,8.23,CA,1617138602
371,Badiraguato,25.3667,-107.5167,305.93,20,75,3.09,MX,1617138712
372,Lodja,-3.4833,23.4333,294.02,98,99,0.35,CD,1617138712
373,Tabuk,17.4189,121.4443,295.71,93,64,0.66,PH,1617138712
374,Krutinka,56.0055,71.5113,260.67,96,71,3.83,RU,1617138713
375,Collie,-33.3667,116.15,287.59,90,24,1.57,AU,1617138713
376,Pacific Grove,36.6177,-121.9166,298.15,26,1,3.09,US,1617138488
377,Coquimbo,-29.9533,-71.3436,290.15,72,0,5.14,CL,1617138714
378,Kruisfontein,-34.0033,24.7314,290.93,68,86,0.45,ZA,1617138714
379,Yamada,39.4667,141.95,281.96,90,98,2.44,JP,1617138714
380,Goderich,43.7501,-81.7165,289.15,39,100,10.29,CA,1617138714
381,Nikolskoye,59.7035,30.7861,278.15,93,90,7.0,RU,1617138715
382,Sukhobuzimskoye,56.5,93.2728,270.15,68,40,6.0,RU,1617138715
383,Orzhytsya,49.7918,32.7012,277.49,67,69,2.84,UA,1617138715
384,Muzhi,65.3667,64.6667,266.01,95,100,3.61,RU,1617138716
385,Kumul,42.8,93.45,281.18,46,100,5.26,CN,1617138716
386,Piaçabuçu,-10.4056,-36.4344,299.63,82,55,4.75,BR,1617138716
387,Byron Bay,-28.65,153.6167,290.15,88,90,4.63,AU,1617138357
388,Tiznit Province,29.5833,-9.5,290.51,51,0,1.66,MA,1617138717
389,Sovetskiy,61.3614,63.5842,268.78,94,100,2.42,RU,1617138717
390,Harper,4.375,-7.7169,299.33,87,65,2.76,LR,1617138702
391,Garoua,9.3,13.4,301.96,11,26,1.99,CM,1617138717
392,Gdynia,54.5189,18.5319,285.15,76,0,6.69,PL,1617138718
393,Chepareria,1.3077,35.2039,291.46,79,93,1.29,KE,1617138718
394,Sīrjān,29.452,55.6814,289.86,16,0,1.66,IR,1617138718
395,Klyuchi,52.2667,79.1667,264.53,94,89,2.83,RU,1617138719
396,Oussouye,12.485,-16.5469,298.15,83,0,3.09,SN,1617138719
397,Kungurtug,50.5994,97.5228,264.59,94,95,1.5,RU,1617138719
398,Puri,19.8,85.85,300.15,94,75,5.14,IN,1617138720
399,Aykhal,66.0,111.5,260.75,95,100,4.09,RU,1617138720
400,Honiara,-9.4333,159.95,300.26,81,73,2.06,SB,1617138720
401,Labis,2.385,103.021,296.75,95,100,0.82,MY,1617138432
402,Vilhena,-12.7406,-60.1458,297.15,88,75,2.57,BR,1617138721
403,Bāfq,31.6128,55.4107,288.3,18,0,2.25,IR,1617138721
404,Shingū,33.7333,135.9833,284.09,75,0,2.8,JP,1617138721
405,Puerto Maldonado,-12.6,-69.1833,304.15,70,20,2.57,PE,1617138722
406,Williston,48.147,-103.618,268.15,54,100,5.81,US,1617138490
407,Nemuro,43.3236,145.575,277.21,79,100,3.84,JP,1617138722
408,Pontes e Lacerda,-15.2261,-59.3353,301.41,64,96,1.52,BR,1617138723
409,Albina,5.5,-54.05,298.49,85,98,2.8,SR,1617138723
410,Bud,39.447,-86.1758,296.15,23,1,9.26,US,1617138723
411,Kapoeta,4.7717,33.5903,300.88,45,54,1.33,SS,1617138724
412,Antofagasta,-23.65,-70.4,291.15,72,20,7.72,CL,1617138687
413,Guerrero Negro,27.9769,-114.0611,295.97,38,1,5.57,MX,1617138724
414,Sola,-13.8833,167.55,300.9,74,100,5.01,VU,1617138724
415,Mandāwar,29.5,78.1333,296.44,18,2,4.11,IN,1617138505
416,Talnakh,69.4865,88.3972,241.77,93,15,0.59,RU,1617138725
417,Horishni Plavni,49.0097,33.6455,277.25,67,11,3.04,UA,1617138725
418,Amahai,-3.3333,128.9167,298.95,84,99,1.96,ID,1617138726
419,Santa Cruz del Sur,20.7147,-77.9956,302.18,58,13,5.85,CU,1617138726
420,La Providencia,28.7167,-111.5833,304.26,21,0,5.36,MX,1617138726
421,Riverton,40.5219,-111.9391,278.71,41,1,7.2,US,1617138727
422,San Rafael,-34.6177,-68.3301,299.05,24,0,6.41,AR,1617138727
423,Arrondissement de Gap,44.6667,6.0,285.37,61,0,2.24,FR,1617138727
424,Sinnamary,5.3833,-52.95,298.76,86,88,6.17,GF,1617138728
425,Shatsk,54.0258,41.7119,270.93,92,100,6.45,RU,1617138728
426,Wagga Wagga,-35.1167,147.3667,284.26,93,66,2.57,AU,1617138729
427,Nyurba,63.2842,118.3319,266.1,97,96,2.38,RU,1617138729
428,Sørland,67.667,12.6934,277.15,81,75,4.63,NO,1617138729
429,Şebinkarahisar,40.2883,38.4236,272.72,66,6,1.36,TR,1617138552
430,Bairiki Village,1.3292,172.9752,302.15,79,75,3.6,KI,1617138730
431,Moorhead,46.8739,-96.7676,272.59,37,90,11.83,US,1617138730
432,Candolim,15.5181,73.7626,298.61,74,9,4.31,IN,1617138730
433,Motomachi,43.8228,144.1044,276.48,76,100,2.68,JP,1617138731
434,Merauke,-8.4667,140.3333,297.95,86,74,2.52,ID,1617138731
435,Cukai,4.25,103.4167,297.15,94,90,1.54,MY,1617138731
436,La Paz,-16.5,-68.15,281.15,81,75,1.03,BO,1617138323
437,Karīmganj,24.8667,92.35,292.84,91,48,0.88,IN,1617138732
438,Broome,42.2506,-75.833,289.15,31,1,9.77,US,1617138602
439,Smithers,54.7804,-127.1743,280.15,53,75,1.54,CA,1617138542
440,Yong’an,39.6957,113.6871,281.86,65,90,2.52,CN,1617138732
441,Beringovskiy,63.05,179.3167,257.24,75,14,1.41,RU,1617138733
442,Yeppoon,-23.1333,150.7333,293.15,77,33,3.09,AU,1617138733
443,Kyabé,9.4515,18.9449,303.23,13,97,1.6,TD,1617138733
444,Brae,60.3964,-1.353,279.15,93,75,3.09,GB,1617138612
445,Zelenoborskiy,66.845,32.3622,272.59,100,100,5.53,RU,1617138734
446,Paamiut,61.994,-49.6678,274.57,96,100,18.69,GL,1617138734
447,Chegdomyn,51.1167,133.0167,267.98,95,64,0.87,RU,1617138734
448,Kirakira,-10.4544,161.9205,301.11,79,59,2.89,SB,1617138734
449,Ürümqi,43.801,87.6005,277.15,81,0,1.0,CN,1617138735
450,Āsmār,35.0333,71.3581,283.8,34,0,5.69,AF,1617138735
451,Cockburn Town,21.4612,-71.1419,300.15,65,40,7.72,TC,1617138665
452,Galveston,29.3669,-94.9669,300.37,78,40,6.69,US,1617138736
453,San Quintín,30.4833,-115.95,291.46,62,1,5.59,MX,1617138648
454,Natal,-5.795,-35.2094,302.15,74,20,5.66,BR,1617138736
455,Inhambane,-23.865,35.3833,294.15,74,0,2.54,MZ,1617138736
456,Portland,45.5234,-122.6762,284.82,50,40,3.6,US,1617138660
457,Vestmannaeyjar,63.4427,-20.2734,276.13,58,2,4.77,IS,1617138737
458,Poções,-14.5297,-40.3653,299.02,44,87,2.49,BR,1617138737
459,Jumla,29.2747,82.1838,279.92,59,9,2.48,NP,1617138737
460,Savelugu,9.6244,-0.8253,306.48,15,37,1.41,GH,1617138738
461,Sayyan,15.1718,44.3244,288.17,26,3,1.78,YE,1617138729
462,Mishan,45.55,131.8833,274.63,81,7,1.56,CN,1617138738
463,Ereymentau,51.6199,73.1033,257.11,99,76,2.03,KZ,1617138739
464,Eirunepé,-6.6603,-69.8736,297.97,95,94,1.73,BR,1617138739
465,Yaqui,27.3667,-110.1667,302.15,21,1,3.09,MX,1617138739
466,Srīvardhan,18.0333,73.0167,297.91,65,54,3.07,IN,1617138740
467,Codrington,-38.2667,141.9667,284.97,89,92,2.44,AU,1617138654
468,Erdenet,49.0333,104.0833,275.93,47,100,1.14,MN,1617138740
469,Narsaq,60.9167,-46.05,279.15,45,75,8.23,GL,1617138740
470,Plácido de Castro,-10.3353,-67.1856,299.5,92,91,1.13,BR,1617138741
471,Karasburg,-28.0167,18.75,296.42,26,96,5.07,NA,1617138741
472,Shelburne,44.0787,-80.2041,292.15,24,1,8.23,CA,1617138741
473,Marabá,-5.3686,-49.1178,300.15,89,75,3.09,BR,1617138567
474,Clyde River,70.4692,-68.5914,254.15,92,90,13.89,CA,1617138742
475,Kilindoni,-7.9139,39.6668,300.95,74,63,5.63,TZ,1617138742
476,Aramecina,13.7422,-87.7103,313.15,36,0,1.54,HN,1617138743
477,Camacha,33.0833,-16.3333,289.15,88,20,1.54,PT,1617138743
478,Salym,60.0625,71.4789,272.46,99,100,0.85,RU,1617138743
479,Berlevåg,70.8578,29.0864,275.15,87,75,9.77,NO,1617138744
480,Ayan,56.45,138.1667,265.99,85,100,3.13,RU,1617138744
481,Kuril'sk,45.2333,147.8833,277.6,72,100,0.68,RU,1617138744
482,Safford,32.834,-109.7076,301.15,7,1,11.32,US,1617138745
483,Atagay,55.1033,99.3875,266.8,84,9,2.37,RU,1617138745
484,Mayskiy,47.6931,40.1025,277.15,87,75,9.0,RU,1617138745
485,Umm Hājar,13.2954,19.6966,298.87,9,4,5.52,TD,1617138746
486,Havøysund,70.9963,24.6622,275.15,87,75,7.2,NO,1617138746
487,Zasheyek,67.4066,32.5499,272.59,89,100,6.07,RU,1617138746
488,Bonfim,3.0833,-59.95,305.01,45,88,5.88,BR,1617138747
489,Steinbach am Taunus,50.1667,8.5667,289.26,47,0,2.06,DE,1617138747
490,Pemba,-12.974,40.5178,298.26,82,22,6.87,MZ,1617138747
491,Phuket,8.0,98.25,303.71,89,40,1.03,TH,1617138444
492,Kariba,-16.5167,28.8,292.77,68,37,3.01,ZW,1617138748
493,Zeulenroda,50.65,11.9833,282.04,56,7,1.06,DE,1617138748
494,Porto-Novo,6.4965,2.6036,302.15,79,20,5.66,BJ,1617138748
495,Kampong Thom,12.7111,104.8887,300.89,62,16,2.62,KH,1617138749
496,Kaputa,-8.4689,29.6619,293.07,87,100,0.78,ZM,1617138749
497,Baykit,61.67,96.37,258.28,97,100,1.5,RU,1617138749
498,Rio Grande,-32.035,-52.0986,295.15,68,40,7.72,BR,1617138693
499,La Trinidad,16.455,120.5875,288.55,79,97,2.02,PH,1617138750
500,Conde,-7.2597,-34.9075,300.15,83,0,3.6,BR,1617138750
501,Waitati,-45.75,170.5667,287.59,82,75,3.58,NZ,1617138751
502,Esso,55.9333,158.7,268.06,94,88,1.77,RU,1617138751
503,Dossor,47.5272,52.9811,274.15,74,0,3.65,KZ,1617138751
504,Niamtougou,9.7681,1.1053,302.79,18,11,1.39,TG,1617138752
505,Vicuña,-30.0319,-70.7081,299.26,21,0,3.05,CL,1617138752
506,St. George's,12.0564,-61.7485,301.15,74,75,10.29,GD,1617138587
507,Norfolk,42.1668,-71.2495,287.59,30,1,5.66,US,1617138752
508,Necochea,-38.5473,-58.7368,291.48,71,0,1.79,AR,1617138753
509,Mińsk Mazowiecki,52.1794,21.5725,284.82,86,100,2.21,PL,1617138753
510,Hobyo,5.3505,48.5268,299.46,72,7,3.98,SO,1617138753
511,Bandarbeyla,9.4942,50.8122,298.66,68,98,3.88,SO,1617138754
512,Baikunthpur,23.25,82.55,296.76,12,3,2.88,IN,1617138754
513,Upata,8.0086,-62.3989,299.35,66,100,4.52,VE,1617138674
514,Marawi,7.9986,124.2928,297.59,94,99,2.68,PH,1617138754
515,Tibiri,13.5627,7.0485,298.21,10,3,4.75,NE,1617138755
516,Khao Yoi,13.2403,99.8243,302.59,98,100,1.45,TH,1617138755
517,Yuscarán,13.9333,-86.85,302.15,42,40,6.17,HN,1617138755
518,Akureyri,65.6835,-18.0878,273.15,69,75,2.06,IS,1617138756
519,Taltal,-25.4,-70.4833,293.47,70,16,3.39,CL,1617138610
520,Mutare,-18.9707,32.6709,286.13,94,5,1.52,ZW,1617138756
521,Gazli,40.1333,63.45,283.33,43,0,1.23,UZ,1617138757
522,San Jose,37.3394,-121.895,297.59,13,1,6.17,US,1617138508
523,Sungai Penuh,-2.0833,101.3833,290.86,95,100,0.55,ID,1617138757
524,Mandalī,33.7499,45.5541,291.8,18,4,1.69,IQ,1617138757
525,Flinders,-34.5833,150.8552,288.15,87,24,0.45,AU,1617138758
526,Novobirilyussy,56.9514,90.6661,267.45,90,100,3.85,RU,1617138758
527,Alofi,-19.0595,-169.9187,301.15,83,75,5.14,NU,1617138758
528,Finschhafen,-6.6024,147.8681,299.64,75,99,1.82,PG,1617138759
529,Kieta,-6.2167,155.6333,299.75,81,100,0.76,PG,1617138759
530,Balakliya,49.4627,36.8595,273.71,80,0,3.0,UA,1617138759
531,Eldorado,-23.7869,-54.2836,295.47,78,95,0.33,BR,1617138760
532,Port Hedland,-20.3167,118.5667,299.15,50,0,4.12,AU,1617138760
533,Ranong,9.9658,98.6348,299.22,87,40,2.7,TH,1617138760
534,Morón,-34.6534,-58.6198,296.48,56,0,1.34,AR,1617138761
535,Kalmunai,7.4167,81.8167,299.35,83,100,4.18,LK,1617138761
536,Kyzyl-Suu,42.3414,78.0056,269.56,69,96,4.27,KG,1617138762
537,Bafra,41.5678,35.9069,280.15,87,75,5.14,TR,1617138762
538,Ketchikan,55.3422,-131.6461,279.15,93,90,3.6,US,1617138762
539,Roebourne,-20.7833,117.1333,302.2,52,3,3.02,AU,1617138763
540,Samaná,19.2056,-69.3369,302.15,65,40,3.09,DO,1617138763
541,Wewak,-3.5534,143.6268,298.69,86,100,1.56,PG,1617138763
542,Puerto Escondido,15.85,-97.0667,304.15,66,1,4.12,MX,1617138764
543,West Wendover,40.7391,-114.0733,281.15,23,1,5.66,US,1617138764
544,Teya,60.3778,92.6267,262.79,94,100,2.37,RU,1617138764
545,Omsukchan,62.5333,155.8,262.01,94,100,1.8,RU,1617138765
546,Geraldton,-28.7667,114.6,294.15,88,30,3.09,AU,1617138765
547,Scottsbluff,41.8666,-103.6672,279.15,24,75,8.75,US,1617138765
548,Ekhabi,53.5102,142.9671,268.77,91,100,8.91,RU,1617138766
549,Ulladulla,-35.35,150.4667,287.04,88,40,1.03,AU,1617138766
550,Hildburghausen,50.4255,10.7318,284.82,44,46,1.13,DE,1617138766
551,Zheleznodorozhnyy,55.7503,38.0042,275.15,93,90,5.0,RU,1617138767
552,Loandjili,-4.7561,11.8578,299.15,89,75,2.06,CG,1617138767
553,Sackville,45.9188,-64.3846,281.48,52,32,6.69,CA,1617138767
554,Comodoro Rivadavia,-45.8667,-67.5,296.15,49,0,3.09,AR,1617138632
555,Khovd,48.0056,91.6419,269.78,44,9,2.28,MN,1617138768
556,Sistranda,63.7256,8.834,277.15,87,40,4.12,NO,1617138768
