,City,Lat,Lng,Max Temp,Humidity,Cloudiness,Wind Speed,Country,Date
0,Novopokrovka,49.8425,36.5477,273.15,80,0,2.0,UA,1617142630
1,Torbay,47.6666,-52.7314,271.48,54,75,7.2,CA,1617142630
2,Saint-Pierre,-21.3393,55.4781,299.15,73,0,2.57,RE,1617142631
3,Lata,40.1629,-8.3327,292.15,45,0,2.06,PT,1617142631
4,Busselton,-33.65,115.3333,287.04,96,51,2.19,AU,1617142631
5,Rikitea,-23.1203,-134.9692,299.05,71,7,6.42,PF,1617142632
6,Hithadhoo,-0.6,73.0833,301.71,76,75,8.32,MV,1617142632
7,Kaitangata,-46.2817,169.8464,286.46,95,97,1.85,NZ,1617142632
8,Saýat,38.7839,63.8803,279.15,75,0,2.06,TM,1617142632
9,Aksu,41.1231,80.2644,280.18,65,92,3.06,CN,1617142633
10,Aklavik,68.2191,-135.0107,256.15,71,90,2.57,CA,1617142633
11,Charyshskoye,51.3978,83.5598,263.04,92,79,1.71,RU,1617142633
12,Buckeye,33.3703,-112.5838,304.26,7,0,2.57,US,1617142429
13,Elektrogorsk,55.8794,38.7919,275.15,93,90,6.0,RU,1617142634
14,Chipinge,-20.1883,32.6236,286.1,79,96,1.78,ZW,1617142634
15,Mataura,-46.1927,168.8643,287.59,98,94,1.34,NZ,1617142635
16,Lebu,-37.6167,-73.65,288.19,86,12,5.02,CL,1617142635
17,Bluff,-46.6,168.3333,287.59,98,29,1.34,NZ,1617142635
18,Port Elizabeth,-33.918,25.5701,290.15,88,0,6.69,ZA,1617142635
19,Atuona,-9.8,-139.0333,300.21,77,95,8.54,PF,1617142636
20,Poum,-20.2333,164.0167,299.27,72,95,4.31,NC,1617142636
21,Qaanaaq,77.484,-69.3632,253.83,71,98,2.87,GL,1617142636
22,Nizwá,22.9333,57.5333,299.42,19,0,1.81,OM,1617142637
23,Praia da Vitória,38.7333,-27.0667,288.71,94,75,3.57,PT,1617142637
24,Mayumba,-3.432,10.6554,298.26,88,100,2.09,GA,1617142637
25,Butaritari,3.0707,172.7902,301.11,78,96,8.06,KI,1617142637
26,Cape Town,-33.9258,18.4232,290.37,94,0,1.54,ZA,1617142134
27,Ponta do Sol,32.6667,-17.1,288.71,74,25,2.24,PT,1617142638
28,Udachny,66.4167,112.4,258.91,95,100,5.28,RU,1617142638
29,Payyanur,12.1,75.2,299.3,82,46,2.64,IN,1617142638
30,Punta Arenas,-53.15,-70.9167,284.15,54,0,4.12,CL,1617142639
31,Khatanga,71.9667,102.5,235.67,99,62,2.98,RU,1617142639
32,Vaini,-21.2,-175.2,303.15,79,20,4.12,TO,1617142639
33,Port Hedland,-20.3167,118.5667,296.15,64,0,3.09,AU,1617142640
34,Coquimbo,-29.9533,-71.3436,289.15,77,0,4.63,CL,1617142450
35,Bengkulu,-3.8004,102.2655,296.68,88,100,1.76,ID,1617142640
36,Dubbo,-32.25,148.6167,287.15,82,0,4.12,AU,1617142384
37,Iskateley,67.6803,53.1512,273.69,97,100,7.78,RU,1617142640
38,Albany,42.6001,-73.9662,289.26,28,40,1.79,US,1617142641
39,Bethel,41.3712,-73.414,287.15,33,1,5.66,US,1617142571
40,Arraial do Cabo,-22.9661,-42.0278,297.15,94,75,6.17,BR,1617142641
41,Husavik,66.0449,-17.3389,273.15,69,75,2.06,IS,1617142641
42,Puerto Baquerizo Moreno,-0.9,-89.6,301.15,83,40,3.6,EC,1617142642
43,Saint-Augustin,51.226,-58.6502,265.4,81,46,2.78,CA,1617142642
44,Saint George,37.1041,-113.5841,288.15,10,1,2.53,US,1617142514
45,Grand Gaube,-20.0064,57.6608,298.71,77,96,2.24,MU,1617142643
46,Davila,18.4726,120.5763,295.15,94,20,1.54,PH,1617142643
47,Surazh,53.0175,32.3918,278.58,90,100,7.31,RU,1617142643
48,Gore,-46.1028,168.9436,287.59,98,96,1.34,NZ,1617142643
49,Straumen,63.8709,11.2999,278.15,75,75,3.6,NO,1617142644
50,Aran,40.6253,46.9756,280.15,87,75,1.03,AZ,1617142644
51,Mahébourg,-20.4081,57.7,296.15,94,40,3.6,MU,1617142586
52,Rawson,-43.3002,-65.1023,296.35,37,99,10.16,AR,1617142645
53,Karksi-Nuia,58.1033,25.5628,280.15,93,90,5.66,EE,1617142645
54,Blatná,49.4249,13.8818,285.37,76,0,0.89,CZ,1617142645
55,Katsuura,35.1333,140.3,289.82,88,55,5.88,JP,1617142645
56,Tahoua,14.8888,5.2692,301.15,6,9,3.09,NE,1617142646
57,Castro,-24.7911,-50.0119,288.63,97,79,1.21,BR,1617142646
58,Jamestown,42.097,-79.2353,292.15,24,1,6.17,US,1617142646
59,Yar-Sale,66.8333,70.8333,250.65,88,100,4.71,RU,1617142647
60,Edgewater,28.9889,-80.9023,299.26,78,40,5.14,US,1617142647
61,Kita,13.0349,-9.4895,304.35,8,18,1.72,ML,1617142647
62,Northfield,44.4583,-93.1616,277.15,41,90,10.29,US,1617142497
63,Bandar-e Lengeh,26.5579,54.8807,296.15,94,1,4.12,IR,1617142648
64,Haines Junction,60.7522,-137.5108,279.15,39,100,4.12,CA,1617142648
65,Margate,51.3813,1.3862,286.48,61,0,2.23,GB,1617142648
66,Hilo,19.7297,-155.09,300.15,61,90,2.06,US,1617142359
67,Kapaa,22.0752,-159.319,300.15,69,75,5.66,US,1617142649
68,Ushuaia,-54.8,-68.3,281.15,57,20,8.23,AR,1617142649
69,Amapá,1.0,-52.0,296.29,98,50,1.58,BR,1617142394
70,Abnūb,27.2696,31.1511,287.15,58,0,5.14,EG,1617142650
71,Longyearbyen,78.2186,15.6401,270.15,68,75,2.57,SJ,1617142650
72,Buta,2.7858,24.73,295.01,90,98,1.01,CD,1617142650
73,Puerto Ayora,-0.7393,-90.3518,301.15,74,20,4.12,EC,1617142651
74,Kununurra,-15.7667,128.7333,294.15,94,5,1.54,AU,1617142651
75,Marsh Harbour,26.5412,-77.0636,298.44,76,0,7.18,BS,1617142651
76,Tiznit Province,29.5833,-9.5,289.86,55,0,0.56,MA,1617142651
77,Kendari,-3.945,122.4989,296.65,94,100,2.05,ID,1617142652
78,Pemangkat,1.1667,108.9667,297.91,91,87,2.08,ID,1617142652
79,Cayenne,4.9333,-52.3333,300.37,78,75,3.6,GF,1617142652
80,Kadapa,14.4667,78.8167,301.92,37,82,2.52,IN,1617142653
81,George Town,5.4112,100.3354,301.15,89,20,1.22,MY,1617142653
82,Benghazi,32.1167,20.0667,287.81,65,36,5.68,LY,1617142653
83,Kaeo,-35.1,173.7833,294.26,87,25,2.68,NZ,1617142653
84,Elmira,42.0898,-76.8077,292.15,27,1,7.2,US,1617142654
85,Ribeira Grande,38.5167,-28.7,287.15,94,75,2.06,PT,1617142654
86,Verkhoyansk,67.5447,133.385,253.81,99,100,0.86,RU,1617142654
87,Sangar,63.9242,127.4739,256.16,96,56,1.74,RU,1617142655
88,Marsá Maţrūḩ,31.3525,27.2453,289.15,59,40,5.14,EG,1617142655
89,Arrondissement de Toul,48.6667,5.9167,288.15,44,0,1.54,FR,1617142655
90,Shahr-e Bābak,30.1165,55.1186,286.63,17,0,1.17,IR,1617142656
91,Kichera,55.9375,110.0997,266.18,82,88,1.55,RU,1617142656
92,Hirara,24.8,125.2833,296.15,100,40,1.03,JP,1617142656
93,Saint Anthony,45.0205,-93.218,277.15,38,75,7.72,US,1617142656
94,Bonfim,3.0833,-59.95,305.15,58,20,5.14,BR,1617142657
95,Dingle,10.9995,122.6711,297.76,90,99,2.76,PH,1617142657
96,San-Pédro,4.7485,-6.6363,299.22,88,20,2.32,CI,1617142657
97,Pilot Butte,50.4668,-104.4178,265.37,57,100,9.77,CA,1617142658
98,Emerald,-23.5333,148.1667,296.15,64,0,5.14,AU,1617142658
99,Tuktoyaktuk,69.4541,-133.0374,249.15,77,20,9.77,CA,1617142658
100,Bud,39.447,-86.1758,296.15,25,1,7.2,US,1617142658
101,Vila do Maio,15.1333,-23.2167,294.15,73,75,6.17,CV,1617142659
102,Lavrentiya,65.5833,-171.0,257.99,72,97,2.99,RU,1617142659
103,Cherskiy,68.75,161.3,255.8,90,39,1.19,RU,1617142659
104,Igarka,67.4667,86.5833,242.51,98,8,3.38,RU,1617142660
105,Vanavara,60.34,102.2797,262.05,93,100,3.45,RU,1617142660
106,Buturlino,55.5667,44.8974,272.22,87,100,7.99,RU,1617142660
107,Touros,-5.1989,-35.4608,299.15,89,0,2.06,BR,1617142661
108,San Patricio,28.017,-97.5169,304.15,69,75,10.8,US,1617142661
109,Vila Velha,-20.3297,-40.2925,300.15,74,0,4.12,BR,1617142661
110,Lokosovo,61.1333,74.8167,252.26,99,43,2.08,RU,1617142662
111,Saint Paul Harbor,57.79,-152.4072,277.15,75,90,4.12,US,1617142662
112,Hobart,-42.8794,147.3294,288.15,82,75,2.57,AU,1617142502
113,Kavieng,-2.5744,150.7967,300.93,76,99,1.43,PG,1617142662
114,Tuy Hoa,13.0833,109.3,295.57,83,68,2.23,VN,1617142663
115,Bayir,37.2687,28.2167,281.15,53,0,1.54,TR,1617142663
116,Thompson,55.7435,-97.8558,262.15,37,75,6.69,CA,1617142515
117,Bredasdorp,-34.5322,20.0403,284.15,93,0,1.03,ZA,1617142663
118,Palauig,15.435,119.9045,299.34,71,100,1.74,PH,1617142664
119,Barão de Melgaço,-16.1944,-55.9675,303.15,58,40,2.57,BR,1617142664
120,Upernavik,72.7868,-56.1549,266.15,71,100,2.98,GL,1617142664
121,Deputatsky,69.3,139.9,250.64,97,77,1.01,RU,1617142665
122,Payson,40.0444,-111.7321,279.26,26,40,3.09,US,1617142647
123,Santa Rosa,14.3122,121.1114,300.37,78,40,1.03,PH,1617142665
124,Anadyr,64.75,177.4833,255.37,71,36,5.0,RU,1617142665
125,Puerto Concordia,2.6221,-72.7572,297.02,94,100,0.81,CO,1617142666
126,Mizque,-17.941,-65.3402,292.4,70,90,2.47,BO,1617142666
127,Nikolskoye,59.7035,30.7861,277.15,93,90,5.0,RU,1617142666
128,Ilulissat,69.2167,-51.1,276.15,60,75,6.17,GL,1617142666
129,Santa Isabel Rio Negro,-0.4139,-65.0192,297.3,96,100,0.47,BR,1617142667
130,Dunedin,-45.8742,170.5036,288.15,75,85,4.02,NZ,1617142606
131,Arlit,18.7369,7.3853,295.87,10,25,4.39,NE,1617142667
132,Preslav,43.1667,26.8167,276.68,78,29,1.81,BG,1617142667
133,Muros,42.7762,-9.0603,288.71,82,86,3.49,ES,1617142668
134,Winsum,53.33,6.5208,284.26,77,0,2.08,NL,1617142668
135,Carnarvon,-24.8667,113.6333,298.15,83,33,5.66,AU,1617142668
136,Waingapu,-9.6567,120.2641,298.48,87,100,3.43,ID,1617142669
137,Vestmannaeyjar,63.4427,-20.2734,276.02,59,2,5.15,IS,1617142669
138,Provideniya,64.3833,-173.3,260.15,66,0,8.0,RU,1617142669
139,Atar,20.5169,-13.0499,302.11,16,36,2.35,MR,1617142669
140,Lüderitz,-26.6481,15.1594,290.57,81,0,4.28,NA,1617142670
141,Iqaluit,63.7506,-68.5145,252.59,59,20,8.23,CA,1617142670
142,Namtsy,62.7161,129.6658,255.15,78,0,1.0,RU,1617142670
143,Portland,45.5234,-122.6762,285.37,50,20,2.48,US,1617142322
144,East London,-33.0153,27.9116,293.84,83,6,4.82,ZA,1617142671
145,Sande,53.5049,8.0142,282.59,87,9,2.06,DE,1617142671
146,Tura,25.5198,90.2201,293.81,92,39,2.65,IN,1617142671
147,Augsburg,48.3667,10.8833,282.15,75,82,1.03,DE,1617142672
148,Papagiannis,40.8333,21.5,282.59,42,7,2.06,GR,1617142672
149,New Norfolk,-42.7826,147.0587,288.15,72,86,1.29,AU,1617142672
150,Kribi,2.95,9.9167,299.48,86,84,3.73,CM,1617142673
151,Kupang,-10.1667,123.5833,298.15,100,90,6.17,ID,1617142673
152,Vostok,46.4856,135.8833,272.53,94,97,1.53,RU,1617142673
153,Talara,-4.5772,-81.2719,302.15,48,0,4.12,PE,1617142674
154,Mariental,-24.6333,17.9667,294.4,54,55,7.03,NA,1617142674
155,Vanimo,-2.6741,141.3028,298.86,88,98,1.49,PG,1617142674
156,Airai,-8.9266,125.4092,288.45,98,100,0.57,TL,1617142675
157,São Filipe,14.8961,-24.4956,294.37,77,3,2.45,CV,1617142675
158,Kampong Cham,11.9934,105.4635,300.37,67,73,4.02,KH,1617142396
159,Caravelas,-17.7125,-39.2481,299.1,74,0,4.53,BR,1617142676
160,Tambilil,5.9622,124.6697,298.83,87,100,1.71,PH,1617142676
161,Harper,4.375,-7.7169,299.19,88,73,1.95,LR,1617142676
162,Xiaoshan,30.1675,120.2588,286.15,100,75,4.0,CN,1617142677
163,Māndal,25.45,74.5667,297.59,11,2,4.45,IN,1617142677
164,Itoman,26.1247,127.6694,295.15,88,75,1.03,JP,1617142677
165,Ambovombe,-25.1667,46.0833,293.47,75,71,2.59,MG,1617142678
166,Pelym,61.0108,61.9978,269.95,95,100,2.46,RU,1617142678
167,Rio Verde de Mato Grosso,-18.9181,-54.8442,301.88,43,70,2.85,BR,1617142678
168,Tilichiki,60.4667,166.1,262.59,91,100,4.8,RU,1617142679
169,Barrow,71.2906,-156.7887,252.15,71,1,12.35,US,1617142679
170,Ji’an,27.1172,114.9793,294.44,97,97,0.42,CN,1617142679
171,Sistranda,63.7256,8.834,277.15,87,75,3.6,NO,1617142680
172,Nanortalik,60.1432,-45.2371,275.63,97,100,10.19,GL,1617142680
173,Asău,46.4333,26.4,274.26,56,38,1.39,RO,1617142680
174,Faya,18.3851,42.4509,290.15,48,0,0.81,SA,1617142680
175,Bonavista,48.6499,-53.1147,270.93,54,100,3.09,CA,1617142681
176,Amudat,1.95,34.95,293.43,74,95,1.76,UG,1617142681
177,De-Kastri,51.4667,140.7833,271.35,88,99,2.67,RU,1617142681
178,Ahipara,-35.1667,173.1667,293.08,78,20,3.86,NZ,1617142682
179,Aksay,47.26,39.87,277.15,93,75,6.0,RU,1617142682
180,Avarua,-21.2078,-159.775,302.15,74,75,4.12,CK,1617142399
181,Auch,43.65,0.5833,286.48,99,37,1.79,FR,1617142682
182,Ibrā’,22.6906,58.5334,298.35,26,0,0.92,OM,1617142683
183,Esim,4.8699,-2.2405,299.67,87,69,2.94,GH,1617142683
184,Moerai,-22.4333,-151.3333,299.19,78,83,8.46,PF,1617142683
185,Černošice,49.9601,14.3198,284.82,46,0,0.68,CZ,1617142684
186,Tūkrah,32.5341,20.5791,286.27,65,52,6.27,LY,1617142684
187,San Matías,-16.3667,-58.4,302.47,49,51,1.16,BO,1617142684
188,Ilhéus,-14.7889,-39.0494,298.15,75,27,3.06,BR,1617142684
189,Hermanus,-34.4187,19.2345,289.82,85,4,0.89,ZA,1617142685
190,Yellowknife,62.456,-114.3525,262.59,56,20,7.2,CA,1617142454
191,Saskylakh,71.9167,114.0833,239.08,100,100,2.93,RU,1617142685
192,Norman Wells,65.282,-126.8329,264.15,86,90,1.54,CA,1617142685
193,Cidreira,-30.1811,-50.2056,293.88,73,20,5.66,BR,1617142686
194,Ballina,-28.8667,153.5667,293.15,73,75,6.69,AU,1617142686
195,Papetoai,-17.4961,-149.8729,304.15,62,20,4.63,PF,1617142686
196,Oruzgan,32.8333,66.0,283.59,25,0,1.71,AF,1617142687
197,Bathsheba,13.2167,-59.5167,299.15,73,20,9.77,BB,1617142687
198,Port Alfred,-33.5906,26.891,292.43,84,36,8.64,ZA,1617142687
199,Vardø,70.3705,31.1107,274.15,86,40,6.69,NO,1617142688
200,Bambous Virieux,-20.3428,57.7575,298.71,94,40,3.6,MU,1617142688
201,Poya,-21.35,165.15,300.23,66,100,4.49,NC,1617142688
202,Chiplūn,17.5333,73.5167,294.71,62,28,0.81,IN,1617142689
203,Topolobampo,25.6,-109.05,305.37,20,1,3.09,MX,1617142689
204,Brae,60.3964,-1.353,279.15,93,75,6.17,GB,1617142689
205,Kabalo,-6.05,26.9167,292.72,97,95,1.45,CD,1617142689
206,Severo-Kuril'sk,50.6789,156.125,275.48,96,87,2.13,RU,1617142690
207,Bireun,5.203,96.7009,298.61,78,98,1.0,ID,1617142690
208,Moose Factory,51.2585,-80.6094,281.15,76,75,9.26,CA,1617142690
209,Dikson,73.5069,80.5464,240.38,96,6,2.5,RU,1617142691
210,Qasigiannguit,68.8193,-51.1922,276.15,60,75,6.17,GL,1617142691
211,Nilanga,18.1,76.7667,299.65,17,16,4.27,IN,1617142691
212,Skowhegan,44.7651,-69.7192,282.04,50,15,0.89,US,1617142692
213,Fortuna,40.5982,-124.1573,290.93,58,20,5.14,US,1617142692
214,Magdagachi,53.45,125.8,264.08,90,7,1.8,RU,1617142692
215,Chokurdakh,70.6333,147.9167,248.36,99,85,0.69,RU,1617142692
216,Mozarlândia,-14.7447,-50.5706,300.35,60,23,2.75,BR,1617142693
217,Kilindoni,-7.9139,39.6668,300.88,74,49,5.69,TZ,1617142693
218,Teahupoo,-17.8333,-149.2667,304.15,62,20,4.63,PF,1617142693
219,Saint-Philippe,-21.3585,55.7679,299.15,73,0,2.57,RE,1617142694
220,Ouésso,1.6136,16.0517,296.26,88,88,1.15,CG,1617142694
221,Berlevåg,70.8578,29.0864,275.15,87,75,9.77,NO,1617142695
222,Kahului,20.8947,-156.47,301.15,57,20,7.72,US,1617142695
223,Batagay,67.6333,134.6333,252.83,99,93,0.58,RU,1617142695
224,Saldanha,-33.0117,17.9442,286.15,88,4,0.51,ZA,1617142695
225,Nakhon Thai,17.1006,100.8374,302.59,40,72,0.58,TH,1617142696
226,Edd,13.9297,41.6925,302.25,45,7,2.42,ER,1617142696
227,Talnakh,69.4865,88.3972,241.46,93,15,0.69,RU,1617142696
228,Kirksville,40.1948,-92.5833,285.15,28,90,5.66,US,1617142697
229,Perbaungan,3.5679,98.956,298.15,100,40,1.54,ID,1617142697
230,Lagan,45.3929,47.3707,277.56,77,63,5.41,RU,1617142697
231,Roswell,34.0232,-84.3616,296.15,49,20,3.09,US,1617142461
232,Eenhana,-17.4667,16.3333,292.15,94,100,3.09,NA,1617142698
233,Fairbanks,64.8378,-147.7164,275.15,60,75,0.7,US,1617142698
234,Morant Bay,17.8815,-76.4093,304.82,58,20,12.35,JM,1617142698
235,Sola,-13.8833,167.55,301.15,89,75,4.8,VU,1617142699
236,Makó,46.2167,20.4833,282.15,66,0,1.54,HU,1617142469
237,Le Port,-20.9373,55.2919,298.15,73,85,3.6,RE,1617142699
238,Plettenberg Bay,-34.0527,23.3716,290.94,53,3,2.7,ZA,1617142699
239,Buchanan,5.8808,-10.0467,298.15,94,20,2.49,LR,1617142700
240,Merauke,-8.4667,140.3333,298.76,83,69,2.85,ID,1617142700
241,Mount Isa,-20.7333,139.5,297.15,31,0,3.6,AU,1617142700
242,Frontera,26.9333,-101.45,308.15,14,40,3.09,MX,1617142701
243,Esperance,-33.8667,121.9,289.15,94,4,3.09,AU,1617142701
244,Te Anau,-45.4167,167.7167,287.06,86,34,0.76,NZ,1617142701
245,Ostrovnoy,68.0531,39.5131,273.09,97,100,3.99,RU,1617142702
246,Kalmar,56.6616,16.3616,282.04,79,38,4.12,SE,1617142702
247,Hong Kong,22.2855,114.1577,298.71,84,19,0.45,HK,1617142148
248,Ndago,-4.6,34.35,288.91,95,89,1.62,TZ,1617142702
249,Gorodovikovsk,46.0878,41.9335,278.01,71,100,6.49,RU,1617142703
250,Alnashi,56.1874,52.4792,268.59,83,64,5.53,RU,1617142703
251,Faanui,-16.4833,-151.75,300.47,73,31,1.52,PF,1617142630
252,Miraflores,19.2167,-98.8083,301.15,16,20,6.17,MX,1617142703
253,Guerrero Negro,27.9769,-114.0611,295.73,39,1,6.09,MX,1617142703
254,Hofn,64.2539,-15.2082,274.45,55,0,3.64,IS,1617142704
255,Bara,10.3744,10.7288,299.07,14,77,4.85,NG,1617142704
256,Santiago del Estero,-27.7951,-64.2615,297.19,47,0,3.11,AR,1617142683
257,Berdigestyakh,62.0989,126.6992,256.21,98,74,1.7,RU,1617142704
258,Leningradskiy,69.3833,178.4167,254.18,87,97,4.22,RU,1617142705
259,Faranah,10.0404,-10.7434,302.49,48,94,3.25,GN,1617142705
260,Constitución,-35.3333,-72.4167,288.84,80,6,3.33,CL,1617142705
261,Salalah,17.0151,54.0924,299.15,61,0,1.54,OM,1617142706
262,Christchurch,-43.5333,172.6333,288.71,94,90,0.51,NZ,1617142459
263,Honiara,-9.4333,159.95,301.79,73,72,2.21,SB,1617142706
264,Buenaventura,3.8801,-77.0312,295.93,65,99,2.28,CO,1617142706
265,Clyde River,70.4692,-68.5914,254.15,84,90,11.83,CA,1617142707
266,Byron Bay,-28.65,153.6167,291.48,88,90,5.14,AU,1617142197
267,Belyy Yar,53.6039,91.3903,269.15,80,0,2.0,RU,1617142707
268,Vao,-22.6667,167.4833,298.08,76,96,7.42,NC,1617142707
269,Eureka,40.8021,-124.1637,293.71,34,1,6.17,US,1617142708
270,Xining,36.6167,101.7667,275.63,70,100,0.94,CN,1617142708
271,Necochea,-38.5473,-58.7368,289.82,79,0,1.79,AR,1617142605
272,Ancud,-41.8697,-73.8203,291.15,77,75,5.14,CL,1617142453
273,Kruisfontein,-34.0033,24.7314,291.16,47,79,3.55,ZA,1617142709
274,Lasem,-6.6922,111.4527,297.7,86,83,1.84,ID,1617142709
275,Sibolga,1.7427,98.7792,296.63,95,96,1.22,ID,1617142709
276,Yangi Marg`ilon,40.4272,71.7189,277.15,70,6,3.09,UZ,1617142696
277,Arman',59.7,150.1667,269.27,89,100,4.77,RU,1617142710
278,City of San Pedro,14.35,121.0167,300.37,78,40,1.03,PH,1617142710
279,Shuangyang,43.5242,125.6736,278.71,74,44,1.0,CN,1617142710
280,Verkhoshizhem'ye,58.011,49.1038,272.74,79,100,7.04,RU,1617142711
281,Kumul,42.8,93.45,280.95,45,100,6.34,CN,1617142711
282,Kiryat Gat,31.61,34.7642,285.93,100,15,1.82,IL,1617142711
283,Narsaq,60.9167,-46.05,279.15,45,90,7.72,GL,1617142711
284,Bima,-8.4667,118.7167,297.12,93,93,1.67,ID,1617142712
285,Chui,-33.6971,-53.4616,290.9,69,53,4.1,UY,1617142712
286,Luanda,-8.8368,13.2343,299.15,83,20,2.06,AO,1617142522
287,La Macarena,2.1837,-73.7849,296.23,97,100,1.07,CO,1617142712
288,Olafsvik,64.8945,-23.7142,276.47,67,18,5.46,IS,1617142713
289,Rosarito,32.3333,-117.0333,292.15,77,20,6.17,MX,1617142713
290,Taoudenni,22.6783,-3.9836,301.86,5,19,5.24,ML,1617142713
291,Koundara,12.4833,-13.3,304.61,21,5,1.44,GN,1617142714
292,Bariloche,-41.1456,-71.3082,296.48,27,20,5.14,AR,1617142603
293,Hobyo,5.3505,48.5268,299.29,72,8,3.93,SO,1617142714
294,Mar del Plata,-38.0023,-57.5575,290.37,82,0,2.06,AR,1617142500
295,Padang,-0.9492,100.3543,297.69,89,98,2.04,ID,1617142714
296,Abu Dhabi,24.4667,54.3667,296.15,83,0,1.54,AE,1617142715
297,Koz'modem'yansk,56.3367,46.5711,273.15,59,0,9.0,RU,1617142715
298,High Rock,26.6208,-78.2833,300.15,65,20,5.66,BS,1617142715
299,Vilcún,-38.65,-72.2333,291.15,72,75,2.57,CL,1617142716
300,Auki,-8.7676,160.7034,301.73,69,59,1.36,SB,1617142716
301,Kiama,-34.6833,150.8667,291.48,81,45,0.89,AU,1617142716
302,Tasiilaq,65.6145,-37.6368,272.15,69,90,6.69,GL,1617142716
303,Cabo San Lucas,22.8909,-109.9124,302.15,14,1,5.14,MX,1617142536
304,Guaraciaba do Norte,-4.1669,-40.7475,292.35,94,92,1.32,BR,1617142717
305,Olinda,-8.0089,-34.8553,300.15,69,75,3.09,BR,1617142717
306,Bukama,-9.2,25.85,292.49,98,100,0.31,CD,1617142717
307,Jacareacanga,-6.2222,-57.7528,297.53,95,61,1.0,BR,1617142718
308,Temanggung,-7.3162,110.1755,298.15,88,20,0.51,ID,1617142718
309,Rybinsk,58.0446,38.8426,275.75,97,100,6.34,RU,1617142718
310,Bonnyville,54.2668,-110.735,269.15,50,40,4.63,CA,1617142719
311,Matiguás,12.8373,-85.4622,299.15,65,40,6.66,NI,1617142719
312,Wonthaggi,-38.6044,145.5913,288.15,94,86,2.28,AU,1617142719
313,Redlands,34.0556,-117.1825,302.15,10,1,2.06,US,1617142719
314,Palmer,42.1584,-72.3287,287.15,28,40,4.12,US,1617142720
315,Muisne,0.6,-80.0333,299.32,83,45,2.56,EC,1617142720
316,Uravakonda,14.95,77.2667,300.45,46,55,3.18,IN,1617142720
317,Palu,-0.8917,119.8707,296.72,93,57,1.08,ID,1617142721
318,Hamilton,39.1834,-84.5333,297.15,28,1,7.72,US,1617142469
319,Wajir,1.7471,40.0573,301.18,51,69,8.38,KE,1617142721
320,Lompoc,34.6391,-120.4579,294.82,37,5,5.66,US,1617142721
321,Acaraú,-2.8856,-40.12,299.0,84,84,3.54,BR,1617142722
322,São João da Barra,-21.6403,-41.0511,300.15,78,40,4.12,BR,1617142722
323,Gijang,35.2442,129.2139,280.15,87,0,2.57,KR,1617142631
324,Saint-Leu,-21.15,55.2833,299.15,73,0,2.57,RE,1617142722
325,Roald,62.5833,6.1333,277.15,87,40,1.54,NO,1617142723
326,Sitka,57.0531,-135.33,277.15,93,90,4.12,US,1617142723
327,Baykit,61.67,96.37,258.01,97,100,1.32,RU,1617142723
328,Seoul,37.5683,126.9778,277.15,87,0,1.03,KR,1617142428
329,Stryn,61.9045,6.7226,273.71,96,100,2.37,NO,1617142724
330,Itarema,-2.9248,-39.9167,298.87,83,86,3.33,BR,1617142724
331,Damaturu,11.747,11.9608,295.91,11,31,3.68,NG,1617142724
332,Hlinsko,49.7621,15.9076,283.15,76,0,1.03,CZ,1617142724
333,Isangel,-19.55,169.2667,300.15,89,90,4.24,VU,1617142725
334,Hudson Bay,52.85,-102.3842,266.24,54,100,5.1,CA,1617142725
335,Klaksvík,62.2266,-6.589,275.15,75,75,4.12,FO,1617142725
336,Hue,16.4667,107.6,300.15,83,20,1.03,VN,1617142626
337,Rapid Valley,44.0625,-103.1463,276.48,23,75,12.86,US,1617142726
338,Paita,-5.0892,-81.1144,302.15,48,0,4.12,PE,1617142726
339,Cedral,23.8,-100.7333,303.24,11,100,3.27,MX,1617142726
340,Beringovskiy,63.05,179.3167,259.44,69,15,1.19,RU,1617142727
341,Adrar,20.5022,-10.0711,301.28,8,12,4.26,MR,1617142727
342,Tessalit,20.1986,1.0114,297.38,6,14,5.58,ML,1617142727
343,Batagay-Alyta,67.8006,130.4114,251.44,99,99,1.91,RU,1617142727
344,Feicheng,35.2606,117.9675,283.71,99,100,0.89,CN,1617142728
345,Paamiut,61.994,-49.6678,274.49,96,100,15.93,GL,1617142728
346,Taltal,-25.4,-70.4833,293.34,70,15,3.1,CL,1617142728
347,Nantucket,41.2835,-70.0995,281.15,81,1,3.09,US,1617142605
348,Alice Springs,-23.7,133.8833,288.15,63,0,4.76,AU,1617142729
349,Salinas,36.6777,-121.6555,300.15,16,1,5.66,US,1617142729
350,Apatou,5.155,-54.3472,297.43,90,88,2.4,GF,1617142730
351,Takoradze,4.8845,-1.7554,299.85,86,86,2.91,GH,1617142730
352,Alice Town,25.7167,-79.3,298.66,77,11,7.97,BS,1617142730
353,Phan Thiet,10.9333,108.1,297.07,89,99,0.65,VN,1617142730
354,Khani,41.9563,42.9566,276.15,93,90,1.03,GE,1617142731
355,Hunsūr,12.3075,76.2878,296.27,70,61,1.63,IN,1617142528
356,Pandan,14.0453,124.1694,298.8,87,89,3.63,PH,1617142731
357,Flinders,-34.5833,150.8552,291.48,78,35,1.79,AU,1617142731
358,Røros,62.5747,11.3842,272.15,93,90,1.03,NO,1617142732
359,Shimoda,34.6667,138.95,286.48,87,23,5.95,JP,1617142732
360,Port Blair,11.6667,92.75,299.69,78,82,1.2,IN,1617142530
361,Ghazīpur,25.5833,83.5667,297.59,18,0,4.22,IN,1617142732
362,Atikokan,48.7555,-91.6216,269.73,55,100,7.25,CA,1617142733
363,Pathein,16.7833,94.7333,296.32,94,6,2.14,MM,1617142733
364,Gravdal,68.1214,13.5031,277.68,76,33,8.56,NO,1617142733
365,Cururupu,-1.8283,-44.8683,297.13,96,98,1.24,BR,1617142733
366,Ayan,56.45,138.1667,267.6,84,100,2.83,RU,1617142734
367,Nyagan,62.1406,65.3936,268.23,97,99,2.39,RU,1617142734
368,Okha,53.5739,142.9478,269.29,91,100,8.51,RU,1617142734
369,Sijunjung,-0.6876,100.9537,294.17,93,80,1.17,ID,1617142735
370,Souillac,-20.5167,57.5167,296.15,94,40,3.6,MU,1617142735
371,Salinópolis,-0.6136,-47.3561,298.64,89,100,4.09,BR,1617142735
372,Isabela,6.7085,121.9711,298.15,94,90,1.03,PH,1617142736
373,Houma,29.5958,-90.7195,300.37,78,75,8.75,US,1617142736
374,Salas,43.4118,-6.2602,289.15,59,0,1.54,ES,1617142736
375,Santa Maria,-29.6842,-53.8069,291.4,80,61,1.67,BR,1617142736
376,Humberto de Campos,-2.5983,-43.4611,297.84,93,98,2.07,BR,1617142737
377,Sambava,-14.2667,50.1667,299.05,84,100,1.52,MG,1617142737
378,Tuatapere,-46.1333,167.6833,287.59,98,65,1.34,NZ,1617142737
379,Matagami,49.7502,-77.6328,286.15,35,75,7.72,CA,1617142738
380,Winneba,5.3511,-0.6231,301.15,89,20,4.63,GH,1617142632
381,Sulzbach-Rosenberg,49.4983,11.7517,282.59,75,1,0.5,DE,1617142738
382,Aranda de Duero,41.6704,-3.6892,285.3,50,9,3.08,ES,1617142738
383,Vila Franca do Campo,37.7167,-25.4333,288.15,82,20,3.6,PT,1617142739
384,Avera,33.194,-82.5271,294.15,78,75,3.09,US,1617142739
385,Lake Shasta,40.6804,-122.3708,295.15,13,1,7.2,US,1617142739
386,Flagstaff,35.1981,-111.6513,288.15,8,1,3.6,US,1617142739
387,Rājgīr,25.0333,85.4167,297.15,57,12,2.95,IN,1617142740
388,Zamora,-4.0692,-78.9567,292.95,99,100,0.67,EC,1617142740
389,Laguna,38.421,-121.4238,299.15,11,1,10.29,US,1617142599
390,Serra Branca,-6.5333,-38.2667,298.8,68,95,3.4,BR,1617142740
391,Umluj,25.0213,37.2685,294.66,56,0,4.83,SA,1617142741
392,Karratha,-20.7377,116.8463,301.89,52,12,3.45,AU,1617142741
393,Ranong,9.9658,98.6348,299.29,87,43,2.77,TH,1617142741
394,Boa Vista,2.8197,-60.6733,299.15,83,75,3.09,BR,1617142742
395,Okhansk,57.7186,55.3877,272.15,55,0,5.0,RU,1617142742
396,Enshi,30.3,109.4833,289.24,92,98,1.01,CN,1617142742
397,Kapit,2.0167,112.9333,295.63,99,100,0.34,MY,1617142742
398,Montrose,38.4166,-108.2673,279.26,16,3,9.39,US,1617142743
399,Tiksi,71.6872,128.8694,253.4,99,100,2.92,RU,1617142743
400,Megion,61.0296,76.1136,253.15,84,20,2.0,RU,1617142743
401,Sioux Lookout,50.1001,-91.917,265.15,67,90,6.17,CA,1617142744
402,Nome,64.5011,-165.4064,265.15,79,75,2.06,US,1617142744
403,Sorong,-0.8833,131.25,299.37,84,86,3.04,ID,1617142744
404,Goderich,43.7501,-81.7165,288.15,38,100,9.77,CA,1617142745
405,Ippy,6.2679,21.2247,298.21,46,46,1.57,CF,1617142745
406,‘Ewa Beach,21.3156,-158.0072,302.15,51,75,4.63,US,1617142745
407,Port Augusta,-32.5,137.7667,290.93,88,4,2.06,AU,1617142746
408,Ocós,14.5094,-92.1933,306.15,55,40,6.17,GT,1617142746
409,Broken Hill,-31.95,141.4333,290.15,42,3,1.54,AU,1617142746
410,Sergeevka,53.88,67.4158,255.76,100,92,2.83,KZ,1617142746
411,Mossamedes,-15.1961,12.1522,296.77,85,99,2.84,AO,1617142747
412,Kochi,9.9399,76.2602,299.15,94,40,1.54,IN,1617142700
413,Zhigansk,66.7697,123.3711,265.34,93,100,6.22,RU,1617142747
414,Leshukonskoye,64.8989,45.7622,274.51,94,100,5.38,RU,1617142747
415,Saint-Joseph,-21.3667,55.6167,299.15,73,0,2.57,RE,1617142748
416,São José da Coroa Grande,-8.8978,-35.1478,299.66,81,93,4.54,BR,1617142748
417,Chernyshevskiy,63.0128,112.4714,254.87,99,99,1.97,RU,1617142748
418,Lamu,-2.2717,40.902,301.15,83,20,2.06,KE,1617142500
419,Gēdo,9.0167,37.45,288.03,63,99,1.6,ET,1617142749
420,Marzuq,14.4,46.4667,293.43,26,78,2.66,YE,1617142749
421,Yeniseysk,58.4497,92.1703,266.8,92,100,3.44,RU,1617142749
422,Rafaela,-31.2503,-61.4867,292.53,66,0,1.53,AR,1617142750
423,Mahabalipuram,12.6264,80.1722,300.15,83,20,2.06,IN,1617142750
424,Kawalu,-7.3817,108.2082,295.99,95,99,0.62,ID,1617142518
425,Vestmanna,62.1564,-7.1664,275.15,75,75,4.12,FO,1617142750
426,Strezhevoy,60.7333,77.5889,253.15,84,20,2.0,RU,1617142751
427,Lypnyazhka,48.4469,31.0761,277.65,65,75,2.47,UA,1617142751
428,Longonjo,-12.9067,15.2533,289.24,96,100,1.01,AO,1617142751
429,Mount Gambier,-37.8333,140.7667,284.15,93,90,2.57,AU,1617142752
430,Piaçabuçu,-10.4056,-36.4344,299.48,83,55,4.76,BR,1617142752
431,Noyabrsk,63.1994,75.4507,243.48,100,89,2.33,RU,1617142752
432,Rancho Palos Verdes,33.7445,-118.387,295.15,49,1,2.06,US,1617142753
433,Mâncio Lima,-7.6142,-72.8958,297.15,94,75,2.06,BR,1617142753
434,Bandarbeyla,9.4942,50.8122,298.46,67,95,3.71,SO,1617142753
435,Shimabara,32.7833,130.3667,284.15,71,0,1.54,JP,1617142753
436,Ushumun,52.7833,126.5333,266.56,87,9,3.02,RU,1617142754
437,Oussouye,12.485,-16.5469,296.15,94,0,3.09,SN,1617142754
438,Passau,48.5712,13.449,283.71,66,3,1.18,DE,1617142754
439,Steamboat Springs,40.485,-106.8317,273.15,29,90,5.66,US,1617142748
440,Atambua,-9.1061,124.8925,295.57,91,99,2.37,ID,1617142755
441,Vieques,18.425,-65.8329,300.15,74,75,9.26,PR,1617142755
442,Puerto Colombia,10.9878,-74.9547,303.15,66,0,7.72,CO,1617142755
443,Lorengau,-2.0226,147.2712,301.53,71,100,2.46,PG,1617142756
444,Reghin,46.7742,24.7022,276.15,75,70,1.03,RO,1617142756
445,Grindavik,63.8424,-22.4338,274.15,69,0,2.06,IS,1617142756
446,Siilinjärvi,63.0833,27.6667,276.15,65,0,6.17,FI,1617142756
447,Hasaki,35.7333,140.8333,288.15,67,75,4.63,JP,1617142757
448,Yangjiang,21.85,111.9667,296.25,97,66,2.35,CN,1617142757
449,Hokitika,-42.7167,170.9667,290.75,74,81,1.13,NZ,1617142757
450,Liberta,17.0333,-61.7833,298.15,78,75,5.14,AG,1617142758
451,Altay,47.8667,88.1167,266.56,52,12,3.32,CN,1617142758
452,Patancheru,17.5314,78.265,299.82,52,19,1.54,IN,1617142624
453,Prieska,-29.6641,22.7474,298.58,36,40,4.22,ZA,1617142758
454,Waycross,31.2136,-82.354,299.15,57,90,2.57,US,1617142759
455,Botou,38.0667,116.5667,284.98,47,80,1.66,CN,1617142759
456,Praia,14.9215,-23.5087,294.15,73,75,6.17,CV,1617142759
457,Yeppoon,-23.1333,150.7333,296.15,68,34,5.14,AU,1617142759
458,Puquio,-14.7,-74.1333,286.23,82,94,3.52,PE,1617142760
459,Hīt,33.6416,42.8251,291.29,19,27,4.65,IQ,1617142628
460,Umm Kaddadah,13.6017,26.6876,293.56,13,0,6.02,SD,1617142760
461,San Jose,37.3394,-121.895,298.15,12,1,5.14,US,1617142701
462,Pakenham,-38.0667,145.4833,288.71,90,73,0.45,AU,1617142761
463,San Cristobal,7.7669,-72.225,300.15,57,75,6.17,VE,1617142761
464,Sehore,23.2,77.0833,298.18,25,1,3.15,IN,1617142761
465,Shache,38.4167,77.2406,280.91,19,94,3.45,CN,1617142762
466,Ketchikan,55.3422,-131.6461,280.15,87,90,4.12,US,1617142762
467,Rome,34.257,-85.1647,299.15,41,1,5.14,US,1617142552
468,Los Llanos de Aridane,28.6585,-17.9182,291.15,59,0,2.06,ES,1617142762
469,Bilibino,68.0546,166.4372,252.18,94,49,1.24,RU,1617142763
470,Ambanja,-13.6833,48.45,297.13,93,32,1.6,MG,1617142763
471,Gabane,-24.6667,25.7822,290.15,72,0,0.51,BW,1617142763
472,Daru,-9.0763,143.2092,297.92,95,100,4.37,PG,1617142764
473,Glendive,47.1053,-104.7125,272.15,31,40,13.38,US,1617142764
474,Yumaguzino,52.9041,56.3933,272.58,89,96,1.07,RU,1617142750
475,Deming,32.2687,-107.7586,299.15,6,1,11.83,US,1617142764
476,Lagoa,39.05,-27.9833,288.08,75,96,2.68,PT,1617142765
477,Dubti,11.7361,41.0853,302.3,20,22,4.89,ET,1617142765
478,Longyan,25.1072,117.0225,294.55,96,100,1.74,CN,1617142765
479,Annau,37.8876,58.516,281.15,61,20,1.03,TM,1617142513
480,Agara,42.0376,43.8238,277.24,80,12,4.01,GE,1617142766
481,Khandyga,62.6667,135.6,255.0,98,78,0.6,RU,1617142766
482,Las Vegas,36.175,-115.1372,294.26,6,1,5.68,US,1617142532
483,Yumen,40.2833,97.2,275.13,97,99,0.95,CN,1617142766
484,Tongzhou,39.9053,116.5994,284.26,81,0,2.0,CN,1617142767
485,Raja,8.4596,25.678,298.8,19,99,2.2,SS,1617142767
486,Ipixuna,-1.7625,-48.8043,300.15,89,20,2.06,BR,1617142767
487,Pevek,69.7008,170.3133,249.09,97,95,3.93,RU,1617142767
488,Narsingdi,23.9208,90.7181,300.15,74,75,4.12,BD,1617142768
489,Sur,22.5667,59.5289,300.57,40,0,1.33,OM,1617142768
490,Pangnirtung,66.1451,-65.7125,255.15,71,75,8.23,CA,1617142768
491,Shreveport,32.5251,-93.7502,299.15,78,90,3.09,US,1617142586
492,Llanes,43.4198,-4.7549,291.48,57,51,2.69,ES,1617142769
493,Adré,13.4667,22.2,295.52,12,0,6.45,TD,1617142769
494,Quatre Cocos,-20.2078,57.7625,298.71,94,40,3.6,MU,1617142769
495,Neiafu,-18.65,-173.9833,302.15,79,40,4.12,TO,1617142770
496,Bubaque,11.2833,-15.8333,297.51,73,80,9.35,GW,1617142770
497,Camacha,33.0833,-16.3333,290.15,82,40,1.54,PT,1617142770
498,Larvik,59.0533,10.0352,282.15,81,40,5.14,NO,1617142771
499,Sacramento,38.4666,-121.3177,299.15,16,1,8.75,US,1617142508
500,Maceió,-9.6658,-35.7353,299.15,89,75,3.09,BR,1617142771
501,Nacala,-14.5428,40.6728,296.91,81,32,3.63,MZ,1617142771
502,Dalbandin,28.8947,64.4101,289.65,13,0,1.77,PK,1617142772
503,Hirtshals,57.5881,9.9592,281.48,93,75,7.72,DK,1617142772
504,Shakhtinsk,49.71,72.5872,266.15,86,75,1.0,KZ,1617142772
505,Hervey Bay,-25.2986,152.8535,293.71,91,68,1.79,AU,1617142773
506,Amrāvati,20.9333,77.75,300.27,17,66,3.96,IN,1617142773
507,Evensk,61.95,159.2333,265.52,63,100,5.67,RU,1617142773
508,Kuvandyk,51.4781,57.3552,266.87,96,76,1.17,RU,1617142773
509,Harwich,51.9419,1.2844,283.15,70,2,2.47,GB,1617142774
510,Torquay,50.4638,-3.5143,282.59,1,32,1.82,GB,1617142774
511,Lucea,18.451,-78.1736,302.15,70,20,8.75,JM,1617142774
512,Simi,9.5667,-12.35,298.85,78,100,0.53,SL,1617142775
513,Kudahuvadhoo,2.6708,72.8944,301.55,76,100,7.77,MV,1617142775
514,El Alto,-4.2714,-81.2147,302.15,48,0,4.12,PE,1617142775
515,Namuac,18.6109,121.1657,297.88,88,68,1.44,PH,1617142775
516,Shingū,33.7333,135.9833,285.73,70,0,2.39,JP,1617142776
517,Hendaye,43.3717,-1.7738,293.15,67,0,1.03,FR,1617142776
518,Koppang,61.5706,11.0555,275.15,90,100,1.62,NO,1617142776
519,Lazarev,52.225,141.5131,267.88,87,94,2.55,RU,1617142777
520,São Félix do Xingu,-6.6447,-51.995,297.11,91,52,1.19,BR,1617142703
521,Tabunok,10.7786,124.0122,300.15,83,90,4.12,PH,1617142777
522,Linjiang,41.8069,126.9078,276.35,64,40,1.05,CN,1617142778
523,Matara,5.9485,80.5353,298.95,87,90,3.02,LK,1617142778
524,Port Hardy,50.6996,-127.4199,283.15,66,75,5.14,CA,1617142778
525,Kosa,59.9445,54.9977,272.37,75,100,5.62,RU,1617142779
526,Sihorā,23.4833,80.1167,297.55,16,2,2.68,IN,1617142779
527,Tautira,-17.7333,-149.15,304.15,62,20,4.63,PF,1617142779
528,Wewak,-3.5534,143.6268,299.19,86,100,1.62,PG,1617142780
529,Seybaplaya,19.65,-90.6667,310.15,26,40,7.72,MX,1617142780
530,Broome,42.2506,-75.833,289.15,33,1,7.72,US,1617142780
531,Severo-Yeniseyskiy,60.3725,93.0408,260.84,95,100,2.92,RU,1617142781
532,Syracuse,37.0881,15.2792,287.15,93,0,2.57,IT,1617142781
533,San Fernando del Valle de Catamarca,-28.4696,-65.7852,297.04,69,13,3.13,AR,1617142781
534,Balkhash,46.844,74.9804,272.83,79,94,1.89,KZ,1617142782
535,Semey,50.4111,80.2275,268.33,95,90,1.47,KZ,1617142782
536,Hudiksvall,61.729,17.1036,277.95,65,100,2.0,SE,1617142782
537,Sanford,28.8006,-81.2731,300.93,61,90,5.66,US,1617142578
538,Waipawa,-41.4122,175.5153,291.15,88,100,4.12,NZ,1617142783
539,High Level,58.5169,-117.136,268.15,54,1,1.54,CA,1617142783
540,Kirakira,-10.4544,161.9205,301.85,74,49,2.83,SB,1617142783
541,Eirunepé,-6.6603,-69.8736,296.6,97,93,1.85,BR,1617142680
542,Beloha,-25.1667,45.05,291.97,77,10,1.47,MG,1617142784
543,Kabanjahe,3.1001,98.4908,298.15,100,40,1.54,ID,1617142784
544,Batticaloa,7.7102,81.6924,299.48,84,100,4.9,LK,1617142784
545,Anking,30.5092,117.0506,289.99,96,100,1.3,CN,1617142784
546,Moree,-29.4667,149.85,293.15,56,40,6.69,AU,1617142785
547,Altagracia de Orituco,9.8601,-66.3814,299.72,66,85,3.82,VE,1617142785
548,Parrita,9.5201,-84.3225,300.15,57,40,7.72,CR,1617142785
549,Predivinsk,57.0669,93.4378,269.51,87,100,4.95,RU,1617142786
550,San Quintín,30.4833,-115.95,291.4,62,1,5.28,MX,1617142786
551,Khāsh,28.2211,61.2158,284.8,23,0,2.18,IR,1617142786
552,Sittwe,20.15,92.9,299.17,81,93,4.08,MM,1617142786
553,Gamba,-2.65,10.0,298.72,87,100,2.51,GA,1617142787
554,Nouadhibou,20.931,-17.0347,291.15,88,0,5.14,MR,1617142787
555,Martha Lake,47.8509,-122.2393,285.93,46,20,2.06,US,1617142787
556,Santa Clarita,34.3917,-118.5426,301.48,9,0,5.81,US,1617142406
557,Sabang,5.8933,95.3214,300.78,74,100,10.02,ID,1617142788
558,Grimshaw,56.1834,-117.6027,274.15,55,75,5.66,CA,1617142540
